%time,field.header.seq,field.header.stamp,field.header.frame_id,field.child_frame_id,field.pose.pose.position.x,field.pose.pose.position.y,field.pose.pose.position.z,field.pose.pose.orientation.x,field.pose.pose.orientation.y,field.pose.pose.orientation.z,field.pose.pose.orientation.w,field.pose.covariance0,field.pose.covariance1,field.pose.covariance2,field.pose.covariance3,field.pose.covariance4,field.pose.covariance5,field.pose.covariance6,field.pose.covariance7,field.pose.covariance8,field.pose.covariance9,field.pose.covariance10,field.pose.covariance11,field.pose.covariance12,field.pose.covariance13,field.pose.covariance14,field.pose.covariance15,field.pose.covariance16,field.pose.covariance17,field.pose.covariance18,field.pose.covariance19,field.pose.covariance20,field.pose.covariance21,field.pose.covariance22,field.pose.covariance23,field.pose.covariance24,field.pose.covariance25,field.pose.covariance26,field.pose.covariance27,field.pose.covariance28,field.pose.covariance29,field.pose.covariance30,field.pose.covariance31,field.pose.covariance32,field.pose.covariance33,field.pose.covariance34,field.pose.covariance35,field.twist.twist.linear.x,field.twist.twist.linear.y,field.twist.twist.linear.z,field.twist.twist.angular.x,field.twist.twist.angular.y,field.twist.twist.angular.z,field.twist.covariance0,field.twist.covariance1,field.twist.covariance2,field.twist.covariance3,field.twist.covariance4,field.twist.covariance5,field.twist.covariance6,field.twist.covariance7,field.twist.covariance8,field.twist.covariance9,field.twist.covariance10,field.twist.covariance11,field.twist.covariance12,field.twist.covariance13,field.twist.covariance14,field.twist.covariance15,field.twist.covariance16,field.twist.covariance17,field.twist.covariance18,field.twist.covariance19,field.twist.covariance20,field.twist.covariance21,field.twist.covariance22,field.twist.covariance23,field.twist.covariance24,field.twist.covariance25,field.twist.covariance26,field.twist.covariance27,field.twist.covariance28,field.twist.covariance29,field.twist.covariance30,field.twist.covariance31,field.twist.covariance32,field.twist.covariance33,field.twist.covariance34,field.twist.covariance35
609938968000,0,609938968000,map,base_link,nan,nan,nan,0.0149411688598,-0.017689729223,-0.0367036509248,-0.9990578947,1e-06,0.0,0.0,0.0,0.0,0.0,0.0,1e-06,0.0,0.0,0.0,0.0,0.0,0.0,1e-06,0.0,0.0,0.0,0.0,0.0,0.0,1e-06,0.0,0.0,0.0,0.0,0.0,0.0,1e-06,0.0,0.0,0.0,0.0,0.0,0.0,1e-06,nan,nan,nan,0.000716405338608,0.00502577098086,-0.0036296681501,0.0001,0.0,0.0,0.0,0.0,0.0,0.0,0.0001,0.0,0.0,0.0,0.0,0.0,0.0,0.0001,0.0,0.0,0.0,0.0,0.0,0.0,0.0001,0.0,0.0,0.0,0.0,0.0,0.0,0.0001,0.0,0.0,0.0,0.0,0.0,0.0,0.0001
609974968000,1,609974968000,map,base_link,nan,nan,nan,0.014936857307,-0.0177737624669,-0.0369153151642,-0.999048669069,1e-06,0.0,0.0,0.0,0.0,0.0,0.0,1e-06,0.0,0.0,0.0,0.0,0.0,0.0,1e-06,0.0,0.0,0.0,0.0,0.0,0.0,1e-06,0.0,0.0,0.0,0.0,0.0,0.0,1e-06,0.0,0.0,0.0,0.0,0.0,0.0,1e-06,nan,nan,nan,-0.00164170376956,0.00950336642563,0.00540790567175,0.0001,0.0,0.0,0.0,0.0,0.0,0.0,0.0001,0.0,0.0,0.0,0.0,0.0,0.0,0.0001,0.0,0.0,0.0,0.0,0.0,0.0,0.0001,0.0,0.0,0.0,0.0,0.0,0.0,0.0001,0.0,0.0,0.0,0.0,0.0,0.0,0.0001
610012968000,2,610012968000,map,base_link,nan,nan,nan,0.0149611838507,-0.0178882433416,-0.0369983957516,-0.999043188476,1e-06,0.0,0.0,0.0,0.0,0.0,0.0,1e-06,0.0,0.0,0.0,0.0,0.0,0.0,1e-06,0.0,0.0,0.0,0.0,0.0,0.0,1e-06,0.0,0.0,0.0,0.0,0.0,0.0,1e-06,0.0,0.0,0.0,0.0,0.0,0.0,1e-06,nan,nan,nan,-0.00337654422037,0.00638359505683,0.0042013283819,0.0001,0.0,0.0,0.0,0.0,0.0,0.0,0.0001,0.0,0.0,0.0,0.0,0.0,0.0,0.0001,0.0,0.0,0.0,0.0,0.0,0.0,0.0001,0.0,0.0,0.0,0.0,0.0,0.0,0.0001,0.0,0.0,0.0,0.0,0.0,0.0,0.0001
610044968000,3,610044968000,map,base_link,-4.38839982237e-20,8.83376399516e-36,0.000358340039384,0.0149566884328,-0.0178105531793,-0.0373657964621,-0.999030969951,1e-06,0.0,0.0,0.0,0.0,0.0,0.0,1e-06,0.0,0.0,0.0,0.0,0.0,0.0,1e-06,0.0,0.0,0.0,0.0,0.0,0.0,1e-06,0.0,0.0,0.0,0.0,0.0,0.0,1e-06,0.0,0.0,0.0,0.0,0.0,0.0,1e-06,-0.00103530791741,-0.000805396605574,0.0281761854163,0.0038973854389,0.00426554586738,0.00976269785315,0.0001,0.0,0.0,0.0,0.0,0.0,0.0,0.0001,0.0,0.0,0.0,0.0,0.0,0.0,0.0001,0.0,0.0,0.0,0.0,0.0,0.0,0.0001,0.0,0.0,0.0,0.0,0.0,0.0,0.0001,0.0,0.0,0.0,0.0,0.0,0.0,0.0001
610081968000,4,610081968000,map,base_link,-1.28422359769e-19,2.58511727239e-35,0.00104864814784,0.0150056327107,-0.0178458261147,-0.0375479695367,-0.999022776247,1e-06,0.0,0.0,0.0,0.0,0.0,0.0,1e-06,0.0,0.0,0.0,0.0,0.0,0.0,1e-06,0.0,0.0,0.0,0.0,0.0,0.0,1e-06,0.0,0.0,0.0,0.0,0.0,0.0,1e-06,0.0,0.0,0.0,0.0,0.0,0.0,1e-06,-0.00149890425959,-0.00116713039109,0.040704908578,0.00275892834179,-0.000580290332437,0.000883799046278,0.0001,0.0,0.0,0.0,0.0,0.0,0.0,0.0001,0.0,0.0,0.0,0.0,0.0,0.0,0.0001,0.0,0.0,0.0,0.0,0.0,0.0,0.0001,0.0,0.0,0.0,0.0,0.0,0.0,0.0001,0.0,0.0,0.0,0.0,0.0,0.0,0.0001
610002276000,5,610002276000,map,base_link,-2.81129892846e-19,5.65909038808e-35,0.0022955997847,0.015114030745,-0.0178359558178,-0.0376040099289,-0.999019210622,1e-06,0.0,0.0,0.0,0.0,0.0,0.0,1e-06,0.0,0.0,0.0,0.0,0.0,0.0,1e-06,0.0,0.0,0.0,0.0,0.0,0.0,1e-06,0.0,0.0,0.0,0.0,0.0,0.0,1e-06,0.0,0.0,0.0,0.0,0.0,0.0,1e-06,-0.00291896313791,-0.00229056963313,0.0792897811908,0.00731394067407,-0.00139461620711,0.000871211756021,0.0001,0.0,0.0,0.0,0.0,0.0,0.0,0.0001,0.0,0.0,0.0,0.0,0.0,0.0,0.0001,0.0,0.0,0.0,0.0,0.0,0.0,0.0001,0.0,0.0,0.0,0.0,0.0,0.0,0.0001,0.0,0.0,0.0,0.0,0.0,0.0,0.0001
610038276000,6,610038276000,map,base_link,-6.2762819433e-19,1.26340342034e-34,0.00512497313321,0.0150767390066,-0.0178108512058,-0.0378549047598,-0.999010746542,1e-06,0.0,0.0,0.0,0.0,0.0,0.0,1e-06,0.0,0.0,0.0,0.0,0.0,0.0,1e-06,0.0,0.0,0.0,0.0,0.0,0.0,1e-06,0.0,0.0,0.0,0.0,0.0,0.0,1e-06,0.0,0.0,0.0,0.0,0.0,0.0,1e-06,-0.00412248525029,-0.00322983998442,0.11212166431,-0.00242842058651,0.00639516953379,0.00732573959976,0.0001,0.0,0.0,0.0,0.0,0.0,0.0,0.0001,0.0,0.0,0.0,0.0,0.0,0.0,0.0001,0.0,0.0,0.0,0.0,0.0,0.0,0.0001,0.0,0.0,0.0,0.0,0.0,0.0,0.0001,0.0,0.0,0.0,0.0,0.0,0.0,0.0001
610080276000,7,610080276000,map,base_link,-1.14816641229e-18,2.31123678878e-34,0.0093754902482,0.0149646332029,-0.0178059900071,-0.0379945475088,-0.999007217608,1e-06,0.0,0.0,0.0,0.0,0.0,0.0,1e-06,0.0,0.0,0.0,0.0,0.0,0.0,1e-06,0.0,0.0,0.0,0.0,0.0,0.0,1e-06,0.0,0.0,0.0,0.0,0.0,0.0,1e-06,0.0,0.0,0.0,0.0,0.0,0.0,1e-06,-0.0053194487009,-0.00413609345252,0.144732958426,0.00338816153817,0.00536966416985,0.00825772155076,0.0001,0.0,0.0,0.0,0.0,0.0,0.0,0.0001,0.0,0.0,0.0,0.0,0.0,0.0,0.0001,0.0,0.0,0.0,0.0,0.0,0.0,0.0001,0.0,0.0,0.0,0.0,0.0,0.0,0.0001,0.0,0.0,0.0,0.0,0.0,0.0,0.0001
610115276000,8,610115276000,map,base_link,-1.62074989075e-18,3.26253819378e-34,0.0132344271988,0.0149053624267,-0.0178670643658,-0.0382150693033,-0.998998601931,1e-06,0.0,0.0,0.0,0.0,0.0,0.0,1e-06,0.0,0.0,0.0,0.0,0.0,0.0,1e-06,0.0,0.0,0.0,0.0,0.0,0.0,1e-06,0.0,0.0,0.0,0.0,0.0,0.0,1e-06,0.0,0.0,0.0,0.0,0.0,0.0,1e-06,-0.00570067460275,-0.0043973137139,0.154584107666,0.00649760104716,-0.00199395534582,-0.00394999375567,0.0001,0.0,0.0,0.0,0.0,0.0,0.0,0.0001,0.0,0.0,0.0,0.0,0.0,0.0,0.0001,0.0,0.0,0.0,0.0,0.0,0.0,0.0001,0.0,0.0,0.0,0.0,0.0,0.0,0.0001,0.0,0.0,0.0,0.0,0.0,0.0,0.0001
610142276000,9,610142276000,map,base_link,-1.96333516643e-18,3.95215573002e-34,0.0160318482667,0.0149681026464,-0.017943727887,-0.038345927814,-0.998991275414,1e-06,0.0,0.0,0.0,0.0,0.0,0.0,1e-06,0.0,0.0,0.0,0.0,0.0,0.0,1e-06,0.0,0.0,0.0,0.0,0.0,0.0,1e-06,0.0,0.0,0.0,0.0,0.0,0.0,1e-06,0.0,0.0,0.0,0.0,0.0,0.0,1e-06,-0.00495803560099,-0.00382311407462,0.133857569422,0.00433483486995,0.0129896691069,0.00194428686518,0.0001,0.0,0.0,0.0,0.0,0.0,0.0,0.0001,0.0,0.0,0.0,0.0,0.0,0.0,0.0001,0.0,0.0,0.0,0.0,0.0,0.0,0.0001,0.0,0.0,0.0,0.0,0.0,0.0,0.0001,0.0,0.0,0.0,0.0,0.0,0.0,0.0001
610126264000,10,610126264000,map,base_link,-2.27942430114e-18,4.58843704679e-34,0.0186129119247,0.0149899041842,-0.0181152962195,-0.0385176217396,-0.998981246887,1e-06,0.0,0.0,0.0,0.0,0.0,0.0,1e-06,0.0,0.0,0.0,0.0,0.0,0.0,1e-06,0.0,0.0,0.0,0.0,0.0,0.0,1e-06,0.0,0.0,0.0,0.0,0.0,0.0,1e-06,0.0,0.0,0.0,0.0,0.0,0.0,1e-06,-0.0031035345433,-0.00237272468609,0.0830048979146,-0.00223260582425,0.00999746564776,0.000424692290835,0.0001,0.0,0.0,0.0,0.0,0.0,0.0,0.0001,0.0,0.0,0.0,0.0,0.0,0.0,0.0001,0.0,0.0,0.0,0.0,0.0,0.0,0.0001,0.0,0.0,0.0,0.0,0.0,0.0,0.0001,0.0,0.0,0.0,0.0,0.0,0.0,0.0001
610160264000,11,610160264000,map,base_link,-2.34134952992e-18,4.71309133503e-34,0.0191185697913,0.015047239724,-0.0181665243258,-0.0388572116354,-0.998966303273,1e-06,0.0,0.0,0.0,0.0,0.0,0.0,1e-06,0.0,0.0,0.0,0.0,0.0,0.0,1e-06,0.0,0.0,0.0,0.0,0.0,0.0,1e-06,0.0,0.0,0.0,0.0,0.0,0.0,1e-06,0.0,0.0,0.0,0.0,0.0,0.0,1e-06,-0.00185136829249,-0.00141584891518,0.0493611080763,-0.00183730514254,0.000972342328168,0.00414952449501,0.0001,0.0,0.0,0.0,0.0,0.0,0.0,0.0001,0.0,0.0,0.0,0.0,0.0,0.0,0.0001,0.0,0.0,0.0,0.0,0.0,0.0,0.0001,0.0,0.0,0.0,0.0,0.0,0.0,0.0001,0.0,0.0,0.0,0.0,0.0,0.0,0.0001
610193264000,12,610193264000,map,base_link,-2.30829162727e-18,4.64654641616e-34,0.018848631531,0.015050293298,-0.0181821541473,-0.0391203129351,-0.998955704252,1e-06,0.0,0.0,0.0,0.0,0.0,0.0,1e-06,0.0,0.0,0.0,0.0,0.0,0.0,1e-06,0.0,0.0,0.0,0.0,0.0,0.0,1e-06,0.0,0.0,0.0,0.0,0.0,0.0,1e-06,0.0,0.0,0.0,0.0,0.0,0.0,1e-06,-0.00214484553868,-0.00163829638171,0.0571262461861,-0.00566458050162,0.00160041172057,0.00381840742193,0.0001,0.0,0.0,0.0,0.0,0.0,0.0,0.0001,0.0,0.0,0.0,0.0,0.0,0.0,0.0001,0.0,0.0,0.0,0.0,0.0,0.0,0.0001,0.0,0.0,0.0,0.0,0.0,0.0,0.0001,0.0,0.0,0.0,0.0,0.0,0.0,0.0001
610228264000,13,610228264000,map,base_link,-2.29000533006e-18,4.60973645342e-34,0.0186993125826,0.0151317261331,-0.0182865841383,-0.0394176995623,-0.998940877463,1e-06,0.0,0.0,0.0,0.0,0.0,0.0,1e-06,0.0,0.0,0.0,0.0,0.0,0.0,1e-06,0.0,0.0,0.0,0.0,0.0,0.0,1e-06,0.0,0.0,0.0,0.0,0.0,0.0,1e-06,0.0,0.0,0.0,0.0,0.0,0.0,1e-06,-0.00135206205132,-0.00103175961855,0.0357973376868,-0.00395744293928,0.00369561440311,0.00420512724668,0.0001,0.0,0.0,0.0,0.0,0.0,0.0,0.0001,0.0,0.0,0.0,0.0,0.0,0.0,0.0001,0.0,0.0,0.0,0.0,0.0,0.0,0.0001,0.0,0.0,0.0,0.0,0.0,0.0,0.0001,0.0,0.0,0.0,0.0,0.0,0.0,0.0001
610264264000,14,610264264000,map,base_link,-2.19548343349e-18,4.41946570317e-34,0.0179274827242,0.0150662042681,-0.0183598405927,-0.0395137920582,-0.998936727716,1e-06,0.0,0.0,0.0,0.0,0.0,0.0,1e-06,0.0,0.0,0.0,0.0,0.0,0.0,1e-06,0.0,0.0,0.0,0.0,0.0,0.0,1e-06,0.0,0.0,0.0,0.0,0.0,0.0,1e-06,0.0,0.0,0.0,0.0,0.0,0.0,1e-06,-0.00061550251258,-0.000465624554193,0.0162341508172,-0.00123677344527,0.00718075875193,-0.00375655060634,0.0001,0.0,0.0,0.0,0.0,0.0,0.0,0.0001,0.0,0.0,0.0,0.0,0.0,0.0,0.0001,0.0,0.0,0.0,0.0,0.0,0.0,0.0001,0.0,0.0,0.0,0.0,0.0,0.0,0.0001,0.0,0.0,0.0,0.0,0.0,0.0,0.0001
610225590000,15,610225590000,map,base_link,-2.04599589062e-18,4.11855016962e-34,0.0167068243027,0.0150246096912,-0.018326713763,-0.0396885585042,-0.998931034151,1e-06,0.0,0.0,0.0,0.0,0.0,0.0,1e-06,0.0,0.0,0.0,0.0,0.0,0.0,1e-06,0.0,0.0,0.0,0.0,0.0,0.0,1e-06,0.0,0.0,0.0,0.0,0.0,0.0,1e-06,0.0,0.0,0.0,0.0,0.0,0.0,1e-06,1.76124075783e-05,1.33058459799e-05,-0.000465328956402,-0.00378862046637,0.00710515258834,0.00552738178521,0.0001,0.0,0.0,0.0,0.0,0.0,0.0,0.0001,0.0,0.0,0.0,0.0,0.0,0.0,0.0001,0.0,0.0,0.0,0.0,0.0,0.0,0.0001,0.0,0.0,0.0,0.0,0.0,0.0,0.0001,0.0,0.0,0.0,0.0,0.0,0.0,0.0001
610257590000,16,610257590000,map,base_link,-1.87436838988e-18,3.77306732896e-34,0.0153053794056,0.0151853946514,-0.018492090884,-0.0400202611061,-0.99891232101,1e-06,0.0,0.0,0.0,0.0,0.0,0.0,1e-06,0.0,0.0,0.0,0.0,0.0,0.0,1e-06,0.0,0.0,0.0,0.0,0.0,0.0,1e-06,0.0,0.0,0.0,0.0,0.0,0.0,1e-06,0.0,0.0,0.0,0.0,0.0,0.0,1e-06,0.00041285705898,0.000312218730473,-0.0108068857017,-0.0109074674547,0.0128928450868,0.000587826129049,0.0001,0.0,0.0,0.0,0.0,0.0,0.0,0.0001,0.0,0.0,0.0,0.0,0.0,0.0,0.0001,0.0,0.0,0.0,0.0,0.0,0.0,0.0001,0.0,0.0,0.0,0.0,0.0,0.0,0.0001,0.0,0.0,0.0,0.0,0.0,0.0,0.0001
610291590000,17,610291590000,map,base_link,-1.71522513918e-18,3.45271504223e-34,0.0140058761463,0.015177227205,-0.0186208742144,-0.0403467414968,-0.998896919241,1e-06,0.0,0.0,0.0,0.0,0.0,0.0,1e-06,0.0,0.0,0.0,0.0,0.0,0.0,1e-06,0.0,0.0,0.0,0.0,0.0,0.0,1e-06,0.0,0.0,0.0,0.0,0.0,0.0,1e-06,0.0,0.0,0.0,0.0,0.0,0.0,1e-06,-0.000219376470989,-0.000164528696385,0.00570256752001,0.00171058659907,0.00936869811267,0.00904813408852,0.0001,0.0,0.0,0.0,0.0,0.0,0.0,0.0001,0.0,0.0,0.0,0.0,0.0,0.0,0.0001,0.0,0.0,0.0,0.0,0.0,0.0,0.0001,0.0,0.0,0.0,0.0,0.0,0.0,0.0001,0.0,0.0,0.0,0.0,0.0,0.0,0.0001
610328590000,18,610328590000,map,base_link,-1.62841432768e-18,3.27796655714e-34,0.0132970120758,0.0150412236663,-0.0187141294748,-0.0403923522807,-0.998895390332,1e-06,0.0,0.0,0.0,0.0,0.0,0.0,1e-06,0.0,0.0,0.0,0.0,0.0,0.0,1e-06,0.0,0.0,0.0,0.0,0.0,0.0,1e-06,0.0,0.0,0.0,0.0,0.0,0.0,1e-06,0.0,0.0,0.0,0.0,0.0,0.0,1e-06,-0.000537959456435,-0.000397698542657,0.0139199785161,-0.00578684126958,0.0102276485413,-0.000919878832065,0.0001,0.0,0.0,0.0,0.0,0.0,0.0,0.0001,0.0,0.0,0.0,0.0,0.0,0.0,0.0001,0.0,0.0,0.0,0.0,0.0,0.0,0.0001,0.0,0.0,0.0,0.0,0.0,0.0,0.0001,0.0,0.0,0.0,0.0,0.0,0.0,0.0001
610299246000,19,610299246000,map,base_link,-1.57627505654e-18,3.17301121241e-34,0.0128712626174,0.0151823775203,-0.0188245391009,-0.0405260247714,-0.99888576597,1e-06,0.0,0.0,0.0,0.0,0.0,0.0,1e-06,0.0,0.0,0.0,0.0,0.0,0.0,1e-06,0.0,0.0,0.0,0.0,0.0,0.0,1e-06,0.0,0.0,0.0,0.0,0.0,0.0,1e-06,0.0,0.0,0.0,0.0,0.0,0.0,1e-06,-0.000495998293502,-0.000367872210515,0.012756116343,0.00310369813815,-0.00416804291308,-0.00508708879352,0.0001,0.0,0.0,0.0,0.0,0.0,0.0,0.0001,0.0,0.0,0.0,0.0,0.0,0.0,0.0001,0.0,0.0,0.0,0.0,0.0,0.0,0.0001,0.0,0.0,0.0,0.0,0.0,0.0,0.0001,0.0,0.0,0.0,0.0,0.0,0.0,0.0001
610338246000,20,610338246000,map,base_link,-1.49989597711e-18,3.01926160227e-34,0.0122475801036,0.0151581351121,-0.0188185312111,-0.0406275687103,-0.998882122417,1e-06,0.0,0.0,0.0,0.0,0.0,0.0,1e-06,0.0,0.0,0.0,0.0,0.0,0.0,1e-06,0.0,0.0,0.0,0.0,0.0,0.0,1e-06,0.0,0.0,0.0,0.0,0.0,0.0,1e-06,0.0,0.0,0.0,0.0,0.0,0.0,1e-06,-0.000578705590144,-0.000428563273579,0.0148874431642,0.00846759323031,0.00521137192845,0.00198207586072,0.0001,0.0,0.0,0.0,0.0,0.0,0.0,0.0001,0.0,0.0,0.0,0.0,0.0,0.0,0.0001,0.0,0.0,0.0,0.0,0.0,0.0,0.0001,0.0,0.0,0.0,0.0,0.0,0.0,0.0001,0.0,0.0,0.0,0.0,0.0,0.0,0.0001
610379246000,21,610379246000,map,base_link,-1.41498439484e-18,2.84833622888e-34,0.0115542244166,0.015148915593,-0.0188855166815,-0.0408687391669,-0.998871159747,1e-06,0.0,0.0,0.0,0.0,0.0,0.0,1e-06,0.0,0.0,0.0,0.0,0.0,0.0,1e-06,0.0,0.0,0.0,0.0,0.0,0.0,1e-06,0.0,0.0,0.0,0.0,0.0,0.0,1e-06,0.0,0.0,0.0,0.0,0.0,0.0,1e-06,-0.000588815576142,-0.000433980787039,0.015093050231,0.00321610085666,-0.00136154238135,0.0043895021081,0.0001,0.0,0.0,0.0,0.0,0.0,0.0,0.0001,0.0,0.0,0.0,0.0,0.0,0.0,0.0001,0.0,0.0,0.0,0.0,0.0,0.0,0.0001,0.0,0.0,0.0,0.0,0.0,0.0,0.0001,0.0,0.0,0.0,0.0,0.0,0.0,0.0001
610403246000,22,610403246000,map,base_link,-1.381677398e-18,2.7812898882e-34,0.0112822521478,0.0151290589823,-0.0187827583728,-0.0409191260968,-0.998871335399,1e-06,0.0,0.0,0.0,0.0,0.0,0.0,1e-06,0.0,0.0,0.0,0.0,0.0,0.0,1e-06,0.0,0.0,0.0,0.0,0.0,0.0,1e-06,0.0,0.0,0.0,0.0,0.0,0.0,1e-06,0.0,0.0,0.0,0.0,0.0,0.0,1e-06,-0.000827306642337,-0.000612281423914,0.0213188199286,0.0047184638679,0.00193568086252,-0.000718304421753,0.0001,0.0,0.0,0.0,0.0,0.0,0.0,0.0001,0.0,0.0,0.0,0.0,0.0,0.0,0.0001,0.0,0.0,0.0,0.0,0.0,0.0,0.0001,0.0,0.0,0.0,0.0,0.0,0.0,0.0001,0.0,0.0,0.0,0.0,0.0,0.0,0.0001
610410427000,23,610410427000,map,base_link,-1.40076982974e-18,2.81972258416e-34,0.0114381536841,0.015278241731,-0.0189019865715,-0.0410973694252,-0.998859497857,1e-06,0.0,0.0,0.0,0.0,0.0,0.0,1e-06,0.0,0.0,0.0,0.0,0.0,0.0,1e-06,0.0,0.0,0.0,0.0,0.0,0.0,1e-06,0.0,0.0,0.0,0.0,0.0,0.0,1e-06,0.0,0.0,0.0,0.0,0.0,0.0,1e-06,-0.00168593699955,-0.00125172734048,0.0431596576309,0.00529631506652,0.00144276674837,-0.00155313196592,0.0001,0.0,0.0,0.0,0.0,0.0,0.0,0.0001,0.0,0.0,0.0,0.0,0.0,0.0,0.0001,0.0,0.0,0.0,0.0,0.0,0.0,0.0001,0.0,0.0,0.0,0.0,0.0,0.0,0.0001,0.0,0.0,0.0,0.0,0.0,0.0,0.0001
610443427000,24,610443427000,map,base_link,-1.504118945e-18,3.02776235497e-34,0.0122820632532,0.0151026810336,-0.0189127238497,-0.0412604668742,-0.998855240651,1e-06,0.0,0.0,0.0,0.0,0.0,0.0,1e-06,0.0,0.0,0.0,0.0,0.0,0.0,1e-06,0.0,0.0,0.0,0.0,0.0,0.0,1e-06,0.0,0.0,0.0,0.0,0.0,0.0,1e-06,0.0,0.0,0.0,0.0,0.0,0.0,1e-06,-0.00228373940781,-0.00167411243575,0.058446205148,-0.00984550174326,0.0154325803742,-0.00237787561491,0.0001,0.0,0.0,0.0,0.0,0.0,0.0,0.0001,0.0,0.0,0.0,0.0,0.0,0.0,0.0001,0.0,0.0,0.0,0.0,0.0,0.0,0.0001,0.0,0.0,0.0,0.0,0.0,0.0,0.0001,0.0,0.0,0.0,0.0,0.0,0.0,0.0001
610480427000,25,610480427000,map,base_link,-1.55865244025e-18,3.13753722654e-34,0.0127273630351,0.0150570918006,-0.018932397163,-0.0412888182332,-0.998854384689,1e-06,0.0,0.0,0.0,0.0,0.0,0.0,1e-06,0.0,0.0,0.0,0.0,0.0,0.0,1e-06,0.0,0.0,0.0,0.0,0.0,0.0,1e-06,0.0,0.0,0.0,0.0,0.0,0.0,1e-06,0.0,0.0,0.0,0.0,0.0,0.0,1e-06,-0.000882141920549,-0.00064394082744,0.0225550793077,-0.00117215979844,0.00722499238327,0.0029168673791,0.0001,0.0,0.0,0.0,0.0,0.0,0.0,0.0001,0.0,0.0,0.0,0.0,0.0,0.0,0.0001,0.0,0.0,0.0,0.0,0.0,0.0,0.0001,0.0,0.0,0.0,0.0,0.0,0.0,0.0001,0.0,0.0,0.0,0.0,0.0,0.0,0.0001
610495801000,26,610495801000,map,base_link,-1.4865624801e-18,2.99242153058e-34,0.012138703838,0.0151305488665,-0.0190004740628,-0.041431596648,-0.99884606986,1e-06,0.0,0.0,0.0,0.0,0.0,0.0,1e-06,0.0,0.0,0.0,0.0,0.0,0.0,1e-06,0.0,0.0,0.0,0.0,0.0,0.0,1e-06,0.0,0.0,0.0,0.0,0.0,0.0,1e-06,0.0,0.0,0.0,0.0,0.0,0.0,1e-06,-0.000111740061626,-8.16494911676e-05,0.00284635965254,-0.00508891185746,-0.00015407986939,0.00326876388863,0.0001,0.0,0.0,0.0,0.0,0.0,0.0,0.0001,0.0,0.0,0.0,0.0,0.0,0.0,0.0001,0.0,0.0,0.0,0.0,0.0,0.0,0.0001,0.0,0.0,0.0,0.0,0.0,0.0,0.0001,0.0,0.0,0.0,0.0,0.0,0.0,0.0001
610535801000,27,610535801000,map,base_link,-1.30979250716e-18,2.63658699279e-34,0.0106952674687,0.015220562156,-0.0190114796036,-0.041627787257,-0.998836335672,1e-06,0.0,0.0,0.0,0.0,0.0,0.0,1e-06,0.0,0.0,0.0,0.0,0.0,0.0,1e-06,0.0,0.0,0.0,0.0,0.0,0.0,1e-06,0.0,0.0,0.0,0.0,0.0,0.0,1e-06,0.0,0.0,0.0,0.0,0.0,0.0,1e-06,0.00108626868176,0.000797774906076,-0.0276456871241,-0.00610329164192,9.49515961111e-05,0.00660108262673,0.0001,0.0,0.0,0.0,0.0,0.0,0.0,0.0001,0.0,0.0,0.0,0.0,0.0,0.0,0.0001,0.0,0.0,0.0,0.0,0.0,0.0,0.0001,0.0,0.0,0.0,0.0,0.0,0.0,0.0001,0.0,0.0,0.0,0.0,0.0,0.0,0.0001
610572801000,28,610572801000,map,base_link,-9.29138018867e-19,1.87033686761e-34,0.00758698768914,0.0153111704203,-0.0190443280629,-0.041828140837,-0.998825954941,1e-06,0.0,0.0,0.0,0.0,0.0,0.0,1e-06,0.0,0.0,0.0,0.0,0.0,0.0,1e-06,0.0,0.0,0.0,0.0,0.0,0.0,1e-06,0.0,0.0,0.0,0.0,0.0,0.0,1e-06,0.0,0.0,0.0,0.0,0.0,0.0,1e-06,0.00422895987948,0.0031179073611,-0.107410794355,-0.00379943475127,0.000911762181204,0.00141108676326,0.0001,0.0,0.0,0.0,0.0,0.0,0.0,0.0001,0.0,0.0,0.0,0.0,0.0,0.0,0.0001,0.0,0.0,0.0,0.0,0.0,0.0,0.0001,0.0,0.0,0.0,0.0,0.0,0.0,0.0001,0.0,0.0,0.0,0.0,0.0,0.0,0.0001
610595801000,29,610595801000,map,base_link,-5.07852320244e-19,1.02229690161e-34,0.00414692889899,0.0154123652925,-0.0190855282185,-0.0420595289103,-0.998813895396,1e-06,0.0,0.0,0.0,0.0,0.0,0.0,1e-06,0.0,0.0,0.0,0.0,0.0,0.0,1e-06,0.0,0.0,0.0,0.0,0.0,0.0,1e-06,0.0,0.0,0.0,0.0,0.0,0.0,1e-06,0.0,0.0,0.0,0.0,0.0,0.0,1e-06,0.00688567191776,0.00509718643368,-0.174454361048,-0.00877469033003,0.0118020744994,0.00746282655746,0.0001,0.0,0.0,0.0,0.0,0.0,0.0,0.0001,0.0,0.0,0.0,0.0,0.0,0.0,0.0001,0.0,0.0,0.0,0.0,0.0,0.0,0.0001,0.0,0.0,0.0,0.0,0.0,0.0,0.0001,0.0,0.0,0.0,0.0,0.0,0.0,0.0001
610621228000,30,610621228000,map,base_link,5.12020371069e-19,-1.03068710733e-34,-0.00418096361682,0.0153791589769,-0.0191816029966,-0.0421832116278,-0.99880735091,1e-06,0.0,0.0,0.0,0.0,0.0,0.0,1e-06,0.0,0.0,0.0,0.0,0.0,0.0,1e-06,0.0,0.0,0.0,0.0,0.0,0.0,1e-06,0.0,0.0,0.0,0.0,0.0,0.0,1e-06,0.0,0.0,0.0,0.0,0.0,0.0,1e-06,0.0104977971177,0.00771226959616,-0.264675577711,-0.0239771977067,0.0189536269754,-0.00112168653868,0.0001,0.0,0.0,0.0,0.0,0.0,0.0,0.0001,0.0,0.0,0.0,0.0,0.0,0.0,0.0001,0.0,0.0,0.0,0.0,0.0,0.0,0.0001,0.0,0.0,0.0,0.0,0.0,0.0,0.0001,0.0,0.0,0.0,0.0,0.0,0.0,0.0001
610654228000,31,610654228000,map,base_link,1.62023459423e-18,-3.26150091185e-34,-0.0132302194834,0.0154243131927,-0.0191887288709,-0.0422728846154,-0.998802726505,1e-06,0.0,0.0,0.0,0.0,0.0,0.0,1e-06,0.0,0.0,0.0,0.0,0.0,0.0,1e-06,0.0,0.0,0.0,0.0,0.0,0.0,1e-06,0.0,0.0,0.0,0.0,0.0,0.0,1e-06,0.0,0.0,0.0,0.0,0.0,0.0,1e-06,0.0128148496506,0.00943741548106,-0.322924966341,0.0164786726236,-0.00101088767406,-0.00698486762121,0.0001,0.0,0.0,0.0,0.0,0.0,0.0,0.0001,0.0,0.0,0.0,0.0,0.0,0.0,0.0001,0.0,0.0,0.0,0.0,0.0,0.0,0.0001,0.0,0.0,0.0,0.0,0.0,0.0,0.0001,0.0,0.0,0.0,0.0,0.0,0.0,0.0001
610689228000,32,610689228000,map,base_link,2.9566021678e-18,-5.95158299951e-34,-0.0241424888372,0.0153619776939,-0.0192593164089,-0.0424689256348,-0.998794012161,1e-06,0.0,0.0,0.0,0.0,0.0,0.0,1e-06,0.0,0.0,0.0,0.0,0.0,0.0,1e-06,0.0,0.0,0.0,0.0,0.0,0.0,1e-06,0.0,0.0,0.0,0.0,0.0,0.0,1e-06,0.0,0.0,0.0,0.0,0.0,0.0,1e-06,0.014310274849,0.0104514843192,-0.359325920784,0.00430273497477,0.0117351096123,0.00361127220094,0.0001,0.0,0.0,0.0,0.0,0.0,0.0,0.0001,0.0,0.0,0.0,0.0,0.0,0.0,0.0001,0.0,0.0,0.0,0.0,0.0,0.0,0.0001,0.0,0.0,0.0,0.0,0.0,0.0,0.0001,0.0,0.0,0.0,0.0,0.0,0.0,0.0001
610702341000,33,610702341000,map,base_link,-4.50206925961e-06,-1.43506567838e-05,-0.0447588041425,0.0136300205425,-0.0207164842322,0.0447095927926,-0.998692195891,1e-06,0.0,0.0,0.0,0.0,0.0,0.0,1e-06,0.0,0.0,0.0,0.0,0.0,0.0,1e-06,0.0,0.0,0.0,0.0,0.0,0.0,1e-06,0.0,0.0,0.0,0.0,0.0,0.0,1e-06,0.0,0.0,0.0,0.0,0.0,0.0,1e-06,0.0140954267284,0.00824776385334,-0.363188178794,0.00468253251165,0.0149780232459,0.00547169568017,0.0001,0.0,0.0,0.0,0.0,0.0,0.0,0.0001,0.0,0.0,0.0,0.0,0.0,0.0,0.0001,0.0,0.0,0.0,0.0,0.0,0.0,0.0001,0.0,0.0,0.0,0.0,0.0,0.0,0.0001,0.0,0.0,0.0,0.0,0.0,0.0,0.0001
610735341000,34,610735341000,map,base_link,4.09312815464e-06,-0.00011230356904,-0.0670156180859,0.0137381551778,-0.020746217027,0.0446502806713,-0.998692750553,1e-06,0.0,0.0,0.0,0.0,0.0,0.0,1e-06,0.0,0.0,0.0,0.0,0.0,0.0,1e-06,0.0,0.0,0.0,0.0,0.0,0.0,1e-06,0.0,0.0,0.0,0.0,0.0,0.0,1e-06,0.0,0.0,0.0,0.0,0.0,0.0,1e-06,0.0171139624092,0.00800952241961,-0.372002025358,-0.0131172984838,0.00712210126221,-0.00208229874261,0.0001,0.0,0.0,0.0,0.0,0.0,0.0,0.0001,0.0,0.0,0.0,0.0,0.0,0.0,0.0001,0.0,0.0,0.0,0.0,0.0,0.0,0.0001,0.0,0.0,0.0,0.0,0.0,0.0,0.0001,0.0,0.0,0.0,0.0,0.0,0.0,0.0001
610770341000,35,610770341000,map,base_link,0.000328147958498,-6.67074709781e-06,-0.0823842510581,0.0139004400602,-0.0209160148853,0.0444454218034,-0.998696101208,1e-06,0.0,0.0,0.0,0.0,0.0,0.0,1e-06,0.0,0.0,0.0,0.0,0.0,0.0,1e-06,0.0,0.0,0.0,0.0,0.0,0.0,1e-06,0.0,0.0,0.0,0.0,0.0,0.0,1e-06,0.0,0.0,0.0,0.0,0.0,0.0,1e-06,0.0295124434511,0.0199966139665,-0.356702962403,-0.00174230337143,-0.00508436840028,0.00317969126627,0.0001,0.0,0.0,0.0,0.0,0.0,0.0,0.0001,0.0,0.0,0.0,0.0,0.0,0.0,0.0001,0.0,0.0,0.0,0.0,0.0,0.0,0.0001,0.0,0.0,0.0,0.0,0.0,0.0,0.0001,0.0,0.0,0.0,0.0,0.0,0.0,0.0001
610799341000,36,610799341000,map,base_link,0.000938398647122,0.000332352181431,-0.0920709967613,0.0139771232633,-0.0210181011382,0.0442292777172,-0.998702483447,1e-06,0.0,0.0,0.0,0.0,0.0,0.0,1e-06,0.0,0.0,0.0,0.0,0.0,0.0,1e-06,0.0,0.0,0.0,0.0,0.0,0.0,1e-06,0.0,0.0,0.0,0.0,0.0,0.0,1e-06,0.0,0.0,0.0,0.0,0.0,0.0,1e-06,0.0381444350134,0.0268985281971,-0.362688002568,-0.0134466644377,0.000669995963108,-0.000399608397856,0.0001,0.0,0.0,0.0,0.0,0.0,0.0,0.0001,0.0,0.0,0.0,0.0,0.0,0.0,0.0001,0.0,0.0,0.0,0.0,0.0,0.0,0.0001,0.0,0.0,0.0,0.0,0.0,0.0,0.0001,0.0,0.0,0.0,0.0,0.0,0.0,0.0001
610834341000,37,610834341000,map,base_link,0.00194472155999,0.000917726429179,-0.103253260255,0.01398808756,-0.0210796073263,0.0441457747819,-0.998704728201,1e-06,0.0,0.0,0.0,0.0,0.0,0.0,1e-06,0.0,0.0,0.0,0.0,0.0,0.0,1e-06,0.0,0.0,0.0,0.0,0.0,0.0,1e-06,0.0,0.0,0.0,0.0,0.0,0.0,1e-06,0.0,0.0,0.0,0.0,0.0,0.0,1e-06,0.0448455876568,0.0325403915216,-0.40063790747,0.00239930208772,0.00307166902348,0.00395627971739,0.0001,0.0,0.0,0.0,0.0,0.0,0.0,0.0001,0.0,0.0,0.0,0.0,0.0,0.0,0.0001,0.0,0.0,0.0,0.0,0.0,0.0,0.0001,0.0,0.0,0.0,0.0,0.0,0.0,0.0001,0.0,0.0,0.0,0.0,0.0,0.0,0.0001
610808457000,38,610808457000,map,base_link,0.00311142043211,0.00156134797726,-0.115286767483,0.0139364725681,-0.0212044461849,0.0440238063457,-0.998708190949,1e-06,0.0,0.0,0.0,0.0,0.0,0.0,1e-06,0.0,0.0,0.0,0.0,0.0,0.0,1e-06,0.0,0.0,0.0,0.0,0.0,0.0,1e-06,0.0,0.0,0.0,0.0,0.0,0.0,1e-06,0.0,0.0,0.0,0.0,0.0,0.0,1e-06,0.048765583456,0.0338343571781,-0.428995856331,-0.00401481986046,0.00475660245866,-0.000397749245167,0.0001,0.0,0.0,0.0,0.0,0.0,0.0,0.0001,0.0,0.0,0.0,0.0,0.0,0.0,0.0001,0.0,0.0,0.0,0.0,0.0,0.0,0.0001,0.0,0.0,0.0,0.0,0.0,0.0,0.0001,0.0,0.0,0.0,0.0,0.0,0.0,0.0001
610840457000,39,610840457000,map,base_link,0.00435017514974,0.00231057149358,-0.104565888643,0.0141474126609,-0.021462120853,0.0439238268147,-0.998704123112,1e-06,0.0,0.0,0.0,0.0,0.0,0.0,1e-06,0.0,0.0,0.0,0.0,0.0,0.0,1e-06,0.0,0.0,0.0,0.0,0.0,0.0,1e-06,0.0,0.0,0.0,0.0,0.0,0.0,1e-06,0.0,0.0,0.0,0.0,0.0,0.0,1e-06,0.0567561251429,0.0429381094285,-0.392473965762,0.00372465257533,0.00638013985008,0.00166805880144,0.0001,0.0,0.0,0.0,0.0,0.0,0.0,0.0001,0.0,0.0,0.0,0.0,0.0,0.0,0.0001,0.0,0.0,0.0,0.0,0.0,0.0,0.0001,0.0,0.0,0.0,0.0,0.0,0.0,0.0001,0.0,0.0,0.0,0.0,0.0,0.0,0.0001
610880457000,40,610880457000,map,base_link,0.00620431546122,0.00357300229371,-0.0730040743947,0.0142873699051,-0.0217605236457,0.0437384693999,-0.998703808427,1e-06,0.0,0.0,0.0,0.0,0.0,0.0,1e-06,0.0,0.0,0.0,0.0,0.0,0.0,1e-06,0.0,0.0,0.0,0.0,0.0,0.0,1e-06,0.0,0.0,0.0,0.0,0.0,0.0,1e-06,0.0,0.0,0.0,0.0,0.0,0.0,1e-06,0.0615532675712,0.0527410889303,-0.312825873878,0.00125388498418,0.00933695863932,-0.000164584955201,0.0001,0.0,0.0,0.0,0.0,0.0,0.0,0.0001,0.0,0.0,0.0,0.0,0.0,0.0,0.0001,0.0,0.0,0.0,0.0,0.0,0.0,0.0001,0.0,0.0,0.0,0.0,0.0,0.0,0.0001,0.0,0.0,0.0,0.0,0.0,0.0,0.0001
610913457000,41,610913457000,map,base_link,0.00795003119856,0.0048719686456,-0.0669416561723,0.0142462499361,-0.0218025517388,0.0436211949914,-0.998708608378,1e-06,0.0,0.0,0.0,0.0,0.0,0.0,1e-06,0.0,0.0,0.0,0.0,0.0,0.0,1e-06,0.0,0.0,0.0,0.0,0.0,0.0,1e-06,0.0,0.0,0.0,0.0,0.0,0.0,1e-06,0.0,0.0,0.0,0.0,0.0,0.0,1e-06,0.0646068182897,0.0579985824717,-0.25788306133,-0.00700929621235,0.0110807502642,0.00125349266455,0.0001,0.0,0.0,0.0,0.0,0.0,0.0,0.0001,0.0,0.0,0.0,0.0,0.0,0.0,0.0001,0.0,0.0,0.0,0.0,0.0,0.0,0.0001,0.0,0.0,0.0,0.0,0.0,0.0,0.0001,0.0,0.0,0.0,0.0,0.0,0.0,0.0001
610948457000,42,610948457000,map,base_link,0.0101124178618,0.00660902261734,-0.0675959736109,0.0143455845564,-0.0218498868284,0.0434690844064,-0.998712784213,1e-06,0.0,0.0,0.0,0.0,0.0,0.0,1e-06,0.0,0.0,0.0,0.0,0.0,0.0,1e-06,0.0,0.0,0.0,0.0,0.0,0.0,1e-06,0.0,0.0,0.0,0.0,0.0,0.0,1e-06,0.0,0.0,0.0,0.0,0.0,0.0,1e-06,0.0726332964649,0.0694363399443,-0.211544839718,-0.00204264558852,0.00235491944477,0.0053348839283,0.0001,0.0,0.0,0.0,0.0,0.0,0.0,0.0001,0.0,0.0,0.0,0.0,0.0,0.0,0.0001,0.0,0.0,0.0,0.0,0.0,0.0,0.0001,0.0,0.0,0.0,0.0,0.0,0.0,0.0001,0.0,0.0,0.0,0.0,0.0,0.0,0.0001
610921804000,43,610921804000,map,base_link,0.0127119105309,0.00883287005126,-0.0703194662929,0.0145550573033,-0.0218745621229,0.0432297987544,-0.998719599456,1e-06,0.0,0.0,0.0,0.0,0.0,0.0,1e-06,0.0,0.0,0.0,0.0,0.0,0.0,1e-06,0.0,0.0,0.0,0.0,0.0,0.0,1e-06,0.0,0.0,0.0,0.0,0.0,0.0,1e-06,0.0,0.0,0.0,0.0,0.0,0.0,1e-06,0.0793788432389,0.0795701518103,-0.190825680217,-0.00195147492923,-0.00080170435831,0.00450672069564,0.0001,0.0,0.0,0.0,0.0,0.0,0.0,0.0001,0.0,0.0,0.0,0.0,0.0,0.0,0.0001,0.0,0.0,0.0,0.0,0.0,0.0,0.0001,0.0,0.0,0.0,0.0,0.0,0.0,0.0001,0.0,0.0,0.0,0.0,0.0,0.0,0.0001
610953804000,44,610953804000,map,base_link,0.0153093524277,0.0110813621432,-0.0736899077892,0.0146003085213,-0.0219247638157,0.0429831787673,-0.998728482655,1e-06,0.0,0.0,0.0,0.0,0.0,0.0,1e-06,0.0,0.0,0.0,0.0,0.0,0.0,1e-06,0.0,0.0,0.0,0.0,0.0,0.0,1e-06,0.0,0.0,0.0,0.0,0.0,0.0,1e-06,0.0,0.0,0.0,0.0,0.0,0.0,1e-06,0.0852067187627,0.0853309962221,-0.188143870423,0.0202298238873,-0.00332005182281,0.0132874203846,0.0001,0.0,0.0,0.0,0.0,0.0,0.0,0.0001,0.0,0.0,0.0,0.0,0.0,0.0,0.0001,0.0,0.0,0.0,0.0,0.0,0.0,0.0001,0.0,0.0,0.0,0.0,0.0,0.0,0.0001,0.0,0.0,0.0,0.0,0.0,0.0,0.0001
610986804000,45,610986804000,map,base_link,0.0171926300973,0.0131130330265,-0.0443739742041,0.0145764442647,-0.0219753479038,0.0427863427554,-0.998736171484,1e-06,0.0,0.0,0.0,0.0,0.0,0.0,1e-06,0.0,0.0,0.0,0.0,0.0,0.0,1e-06,0.0,0.0,0.0,0.0,0.0,0.0,1e-06,0.0,0.0,0.0,0.0,0.0,0.0,1e-06,0.0,0.0,0.0,0.0,0.0,0.0,1e-06,0.0909306368201,0.0938225774595,-0.202102079299,0.0078512057662,0.00176858529449,0.00445699878037,0.0001,0.0,0.0,0.0,0.0,0.0,0.0,0.0001,0.0,0.0,0.0,0.0,0.0,0.0,0.0001,0.0,0.0,0.0,0.0,0.0,0.0,0.0001,0.0,0.0,0.0,0.0,0.0,0.0,0.0001,0.0,0.0,0.0,0.0,0.0,0.0,0.0001
611023804000,46,611023804000,map,base_link,0.0198560245335,0.0158861968666,-0.0232304595411,0.0146078360345,-0.0220726730156,0.0426632232404,-0.998738833537,1e-06,0.0,0.0,0.0,0.0,0.0,0.0,1e-06,0.0,0.0,0.0,0.0,0.0,0.0,1e-06,0.0,0.0,0.0,0.0,0.0,0.0,1e-06,0.0,0.0,0.0,0.0,0.0,0.0,1e-06,0.0,0.0,0.0,0.0,0.0,0.0,1e-06,0.099444277549,0.10554808892,-0.246045314782,-0.00784451980144,0.00804486591369,0.00172364513855,0.0001,0.0,0.0,0.0,0.0,0.0,0.0,0.0001,0.0,0.0,0.0,0.0,0.0,0.0,0.0001,0.0,0.0,0.0,0.0,0.0,0.0,0.0001,0.0,0.0,0.0,0.0,0.0,0.0,0.0001,0.0,0.0,0.0,0.0,0.0,0.0,0.0001
610997504000,47,610997504000,map,base_link,0.0218118838966,0.0178062729537,-0.0208337791264,0.0146301642885,-0.0223183479992,0.0425171125671,-0.998739277677,1e-06,0.0,0.0,0.0,0.0,0.0,0.0,1e-06,0.0,0.0,0.0,0.0,0.0,0.0,1e-06,0.0,0.0,0.0,0.0,0.0,0.0,1e-06,0.0,0.0,0.0,0.0,0.0,0.0,1e-06,0.0,0.0,0.0,0.0,0.0,0.0,1e-06,0.105416331889,0.112954366076,-0.251417954003,0.00124141026754,0.0190967116505,0.00838638283312,0.0001,0.0,0.0,0.0,0.0,0.0,0.0,0.0001,0.0,0.0,0.0,0.0,0.0,0.0,0.0001,0.0,0.0,0.0,0.0,0.0,0.0,0.0001,0.0,0.0,0.0,0.0,0.0,0.0,0.0001,0.0,0.0,0.0,0.0,0.0,0.0,0.0001
611042504000,48,611042504000,map,base_link,0.0265225563198,0.0223451964557,-0.0253975447267,0.0146758210847,-0.0225349472987,0.0423452752939,-0.998741044559,1e-06,0.0,0.0,0.0,0.0,0.0,0.0,1e-06,0.0,0.0,0.0,0.0,0.0,0.0,1e-06,0.0,0.0,0.0,0.0,0.0,0.0,1e-06,0.0,0.0,0.0,0.0,0.0,0.0,1e-06,0.0,0.0,0.0,0.0,0.0,0.0,1e-06,0.116722483462,0.127445237524,-0.264445495972,-0.01347046718,0.0135069414973,0.0040125567466,0.0001,0.0,0.0,0.0,0.0,0.0,0.0,0.0001,0.0,0.0,0.0,0.0,0.0,0.0,0.0001,0.0,0.0,0.0,0.0,0.0,0.0,0.0001,0.0,0.0,0.0,0.0,0.0,0.0,0.0001,0.0,0.0,0.0,0.0,0.0,0.0,0.0001
611066504000,49,611066504000,map,base_link,0.0293426550925,0.0250605177134,-0.0300546772778,0.0148025255742,-0.0227224114576,0.0421905934952,-0.998741473593,1e-06,0.0,0.0,0.0,0.0,0.0,0.0,1e-06,0.0,0.0,0.0,0.0,0.0,0.0,1e-06,0.0,0.0,0.0,0.0,0.0,0.0,1e-06,0.0,0.0,0.0,0.0,0.0,0.0,1e-06,0.0,0.0,0.0,0.0,0.0,0.0,1e-06,0.125525600395,0.137312962865,-0.252339969115,-0.00534095522016,0.00692224828526,0.00918283034116,0.0001,0.0,0.0,0.0,0.0,0.0,0.0,0.0001,0.0,0.0,0.0,0.0,0.0,0.0,0.0001,0.0,0.0,0.0,0.0,0.0,0.0,0.0001,0.0,0.0,0.0,0.0,0.0,0.0,0.0001,0.0,0.0,0.0,0.0,0.0,0.0,0.0001
611112504000,50,611112504000,map,base_link,0.0338601581752,0.0295870751143,-0.0247306991369,0.0149851911263,-0.0230066541661,0.0420100990402,-0.998739850757,1e-06,0.0,0.0,0.0,0.0,0.0,0.0,1e-06,0.0,0.0,0.0,0.0,0.0,0.0,1e-06,0.0,0.0,0.0,0.0,0.0,0.0,1e-06,0.0,0.0,0.0,0.0,0.0,0.0,1e-06,0.0,0.0,0.0,0.0,0.0,0.0,1e-06,0.139753967531,0.149763766788,-0.142946146008,-0.00721428589895,0.00123443733901,0.000250460347161,0.0001,0.0,0.0,0.0,0.0,0.0,0.0,0.0001,0.0,0.0,0.0,0.0,0.0,0.0,0.0001,0.0,0.0,0.0,0.0,0.0,0.0,0.0001,0.0,0.0,0.0,0.0,0.0,0.0,0.0001,0.0,0.0,0.0,0.0,0.0,0.0,0.0001
611103899000,51,611103899000,map,base_link,0.035031888634,0.0310535207391,-0.00886998325586,0.0149920730288,-0.0229944376015,0.041856971848,-0.998746458063,1e-06,0.0,0.0,0.0,0.0,0.0,0.0,1e-06,0.0,0.0,0.0,0.0,0.0,0.0,1e-06,0.0,0.0,0.0,0.0,0.0,0.0,1e-06,0.0,0.0,0.0,0.0,0.0,0.0,1e-06,0.0,0.0,0.0,0.0,0.0,0.0,1e-06,0.141266119092,0.14947380037,-0.0992810496326,0.00562813924626,0.00324979657307,0.00968214310706,0.0001,0.0,0.0,0.0,0.0,0.0,0.0,0.0001,0.0,0.0,0.0,0.0,0.0,0.0,0.0001,0.0,0.0,0.0,0.0,0.0,0.0,0.0001,0.0,0.0,0.0,0.0,0.0,0.0,0.0001,0.0,0.0,0.0,0.0,0.0,0.0,0.0001
611140899000,52,611140899000,map,base_link,0.0388140156865,0.034598864615,0.00026696792338,0.0149316558592,-0.0230532580607,0.0416118893384,-0.998756248347,1e-06,0.0,0.0,0.0,0.0,0.0,0.0,1e-06,0.0,0.0,0.0,0.0,0.0,0.0,1e-06,0.0,0.0,0.0,0.0,0.0,0.0,1e-06,0.0,0.0,0.0,0.0,0.0,0.0,1e-06,0.0,0.0,0.0,0.0,0.0,0.0,1e-06,0.143525611909,0.144448954453,-0.055253791929,0.015242758207,0.00154369790107,0.00587224215269,0.0001,0.0,0.0,0.0,0.0,0.0,0.0,0.0001,0.0,0.0,0.0,0.0,0.0,0.0,0.0001,0.0,0.0,0.0,0.0,0.0,0.0,0.0001,0.0,0.0,0.0,0.0,0.0,0.0,0.0001,0.0,0.0,0.0,0.0,0.0,0.0,0.0001
611174899000,53,611174899000,map,base_link,0.0435170121491,0.0385639443994,0.00294255535118,0.014825199225,-0.0230712327788,0.0414732552989,-0.998763185535,1e-06,0.0,0.0,0.0,0.0,0.0,0.0,1e-06,0.0,0.0,0.0,0.0,0.0,0.0,1e-06,0.0,0.0,0.0,0.0,0.0,0.0,1e-06,0.0,0.0,0.0,0.0,0.0,0.0,1e-06,0.0,0.0,0.0,0.0,0.0,0.0,1e-06,0.147559566255,0.141390925729,-0.0290559416829,0.00791108328849,0.00296980165876,0.00582456123084,0.0001,0.0,0.0,0.0,0.0,0.0,0.0,0.0001,0.0,0.0,0.0,0.0,0.0,0.0,0.0001,0.0,0.0,0.0,0.0,0.0,0.0,0.0001,0.0,0.0,0.0,0.0,0.0,0.0,0.0001,0.0,0.0,0.0,0.0,0.0,0.0,0.0001
611209899000,54,611209899000,map,base_link,0.0489457324147,0.0428540892899,0.00415883725509,0.014662758695,-0.023109253236,0.0413373138866,-0.99877034017,1e-06,0.0,0.0,0.0,0.0,0.0,0.0,1e-06,0.0,0.0,0.0,0.0,0.0,0.0,1e-06,0.0,0.0,0.0,0.0,0.0,0.0,1e-06,0.0,0.0,0.0,0.0,0.0,0.0,1e-06,0.0,0.0,0.0,0.0,0.0,0.0,1e-06,0.153890866459,0.142279793947,0.0126186749236,0.00120336574037,0.00102194631472,0.00794807262719,0.0001,0.0,0.0,0.0,0.0,0.0,0.0,0.0001,0.0,0.0,0.0,0.0,0.0,0.0,0.0001,0.0,0.0,0.0,0.0,0.0,0.0,0.0001,0.0,0.0,0.0,0.0,0.0,0.0,0.0001,0.0,0.0,0.0,0.0,0.0,0.0,0.0001
611223881000,55,611223881000,map,base_link,0.0561138689518,0.0484294556081,0.00512039056048,0.0147611873546,-0.0232819715255,0.0411713746813,-0.998771733209,1e-06,0.0,0.0,0.0,0.0,0.0,0.0,1e-06,0.0,0.0,0.0,0.0,0.0,0.0,1e-06,0.0,0.0,0.0,0.0,0.0,0.0,1e-06,0.0,0.0,0.0,0.0,0.0,0.0,1e-06,0.0,0.0,0.0,0.0,0.0,0.0,1e-06,0.165322836817,0.149642535542,0.0250765472778,-0.0144258541986,0.0156250670552,0.00392485130578,0.0001,0.0,0.0,0.0,0.0,0.0,0.0,0.0001,0.0,0.0,0.0,0.0,0.0,0.0,0.0001,0.0,0.0,0.0,0.0,0.0,0.0,0.0001,0.0,0.0,0.0,0.0,0.0,0.0,0.0001,0.0,0.0,0.0,0.0,0.0,0.0,0.0001
611249881000,56,611249881000,map,base_link,0.0562490485609,0.0477958396077,0.0185414738953,0.0146633793848,-0.0233452594258,0.0409467924442,-0.998780929111,1e-06,0.0,0.0,0.0,0.0,0.0,0.0,1e-06,0.0,0.0,0.0,0.0,0.0,0.0,1e-06,0.0,0.0,0.0,0.0,0.0,0.0,1e-06,0.0,0.0,0.0,0.0,0.0,0.0,1e-06,0.0,0.0,0.0,0.0,0.0,0.0,1e-06,0.164107709862,0.142554253192,-0.0248326160173,0.00124082749244,0.0148884328082,0.00145391293336,0.0001,0.0,0.0,0.0,0.0,0.0,0.0,0.0001,0.0,0.0,0.0,0.0,0.0,0.0,0.0001,0.0,0.0,0.0,0.0,0.0,0.0,0.0001,0.0,0.0,0.0,0.0,0.0,0.0,0.0001,0.0,0.0,0.0,0.0,0.0,0.0,0.0001
611284881000,57,611284881000,map,base_link,0.0561412572861,0.0464823395014,0.0346743389964,0.0145268989426,-0.023203839671,0.0408247372109,-0.998791215351,1e-06,0.0,0.0,0.0,0.0,0.0,0.0,1e-06,0.0,0.0,0.0,0.0,0.0,0.0,1e-06,0.0,0.0,0.0,0.0,0.0,0.0,1e-06,0.0,0.0,0.0,0.0,0.0,0.0,1e-06,0.0,0.0,0.0,0.0,0.0,0.0,1e-06,0.159777080583,0.131394971436,-0.0710619432912,0.000164570068591,0.000755060988013,0.002777535934,0.0001,0.0,0.0,0.0,0.0,0.0,0.0,0.0001,0.0,0.0,0.0,0.0,0.0,0.0,0.0001,0.0,0.0,0.0,0.0,0.0,0.0,0.0001,0.0,0.0,0.0,0.0,0.0,0.0,0.0001,0.0,0.0,0.0,0.0,0.0,0.0,0.0001
611321881000,58,611321881000,map,base_link,0.0597227551043,0.0484258159995,0.0365167893469,0.0145333735105,-0.0232211587871,0.0407642982647,-0.998793187214,1e-06,0.0,0.0,0.0,0.0,0.0,0.0,1e-06,0.0,0.0,0.0,0.0,0.0,0.0,1e-06,0.0,0.0,0.0,0.0,0.0,0.0,1e-06,0.0,0.0,0.0,0.0,0.0,0.0,1e-06,0.0,0.0,0.0,0.0,0.0,0.0,1e-06,0.16247396935,0.132198018342,-0.141479158477,-0.00110372353811,0.00441280147061,0.00647433288395,0.0001,0.0,0.0,0.0,0.0,0.0,0.0,0.0001,0.0,0.0,0.0,0.0,0.0,0.0,0.0001,0.0,0.0,0.0,0.0,0.0,0.0,0.0001,0.0,0.0,0.0,0.0,0.0,0.0,0.0001,0.0,0.0,0.0,0.0,0.0,0.0,0.0001
611301397000,59,611301397000,map,base_link,0.0650046393275,0.0517338737845,0.0328018032014,0.014624867267,-0.0231997170814,0.0407780248017,-0.998791789653,1e-06,0.0,0.0,0.0,0.0,0.0,0.0,1e-06,0.0,0.0,0.0,0.0,0.0,0.0,1e-06,0.0,0.0,0.0,0.0,0.0,0.0,1e-06,0.0,0.0,0.0,0.0,0.0,0.0,1e-06,0.0,0.0,0.0,0.0,0.0,0.0,1e-06,0.164413044829,0.123912537307,-0.132832995967,3.76241223421e-05,-0.000702169607393,0.00704210717231,0.0001,0.0,0.0,0.0,0.0,0.0,0.0,0.0001,0.0,0.0,0.0,0.0,0.0,0.0,0.0001,0.0,0.0,0.0,0.0,0.0,0.0,0.0001,0.0,0.0,0.0,0.0,0.0,0.0,0.0001,0.0,0.0,0.0,0.0,0.0,0.0,0.0001
611338397000,60,611338397000,map,base_link,0.071063645184,0.0553834848106,0.0278890412301,0.0145934681602,-0.0232435540901,0.0405754927099,-0.998799478009,1e-06,0.0,0.0,0.0,0.0,0.0,0.0,1e-06,0.0,0.0,0.0,0.0,0.0,0.0,1e-06,0.0,0.0,0.0,0.0,0.0,0.0,1e-06,0.0,0.0,0.0,0.0,0.0,0.0,1e-06,0.0,0.0,0.0,0.0,0.0,0.0,1e-06,0.171354433156,0.12464720442,-0.12719242565,0.00482120877132,0.00586098153144,-0.000153447501361,0.0001,0.0,0.0,0.0,0.0,0.0,0.0,0.0001,0.0,0.0,0.0,0.0,0.0,0.0,0.0001,0.0,0.0,0.0,0.0,0.0,0.0,0.0001,0.0,0.0,0.0,0.0,0.0,0.0,0.0001,0.0,0.0,0.0,0.0,0.0,0.0,0.0001
611374397000,61,611374397000,map,base_link,0.0774414464831,0.0593652613461,0.0237655155361,0.0145286749123,-0.0233726867649,0.0404591938122,-0.998802126927,1e-06,0.0,0.0,0.0,0.0,0.0,0.0,1e-06,0.0,0.0,0.0,0.0,0.0,0.0,1e-06,0.0,0.0,0.0,0.0,0.0,0.0,1e-06,0.0,0.0,0.0,0.0,0.0,0.0,1e-06,0.0,0.0,0.0,0.0,0.0,0.0,1e-06,0.184795760167,0.14105342616,-0.0868803285931,0.00834439694881,0.00194127904251,-0.00188927748241,0.0001,0.0,0.0,0.0,0.0,0.0,0.0,0.0001,0.0,0.0,0.0,0.0,0.0,0.0,0.0001,0.0,0.0,0.0,0.0,0.0,0.0,0.0001,0.0,0.0,0.0,0.0,0.0,0.0,0.0001,0.0,0.0,0.0,0.0,0.0,0.0,0.0001
611398397000,62,611398397000,map,base_link,0.0719189494848,0.0536095909774,0.0250392258167,0.0144625226974,-0.0233521097656,0.0402817861359,-0.998810738885,1e-06,0.0,0.0,0.0,0.0,0.0,0.0,1e-06,0.0,0.0,0.0,0.0,0.0,0.0,1e-06,0.0,0.0,0.0,0.0,0.0,0.0,1e-06,0.0,0.0,0.0,0.0,0.0,0.0,1e-06,0.0,0.0,0.0,0.0,0.0,0.0,1e-06,0.176838386252,0.132791855445,-0.0568253611514,-0.00205464940518,0.0095448307693,0.00613301666453,0.0001,0.0,0.0,0.0,0.0,0.0,0.0,0.0001,0.0,0.0,0.0,0.0,0.0,0.0,0.0001,0.0,0.0,0.0,0.0,0.0,0.0,0.0001,0.0,0.0,0.0,0.0,0.0,0.0,0.0001,0.0,0.0,0.0,0.0,0.0,0.0,0.0001
611395083000,63,611395083000,map,base_link,0.0713797584176,0.051721945405,0.0250348430127,0.0143959811396,-0.0233674406299,0.0401960776105,-0.998814794539,1e-06,0.0,0.0,0.0,0.0,0.0,0.0,1e-06,0.0,0.0,0.0,0.0,0.0,0.0,1e-06,0.0,0.0,0.0,0.0,0.0,0.0,1e-06,0.0,0.0,0.0,0.0,0.0,0.0,1e-06,0.0,0.0,0.0,0.0,0.0,0.0,1e-06,0.176052737111,0.128955388525,-0.0335294693429,-0.00993503257632,0.00920502841473,0.0104586277157,0.0001,0.0,0.0,0.0,0.0,0.0,0.0,0.0001,0.0,0.0,0.0,0.0,0.0,0.0,0.0001,0.0,0.0,0.0,0.0,0.0,0.0,0.0001,0.0,0.0,0.0,0.0,0.0,0.0,0.0001,0.0,0.0,0.0,0.0,0.0,0.0,0.0001
611434083000,64,611434083000,map,base_link,0.0757022276521,0.0535909533501,0.024075910449,0.0143852974054,-0.0233890907927,0.039980912225,-0.998823077581,1e-06,0.0,0.0,0.0,0.0,0.0,0.0,1e-06,0.0,0.0,0.0,0.0,0.0,0.0,1e-06,0.0,0.0,0.0,0.0,0.0,0.0,1e-06,0.0,0.0,0.0,0.0,0.0,0.0,1e-06,0.0,0.0,0.0,0.0,0.0,0.0,1e-06,0.184696046454,0.134437185874,-0.013436588439,-0.00869066920131,-0.00479663070291,0.0106301913038,0.0001,0.0,0.0,0.0,0.0,0.0,0.0,0.0001,0.0,0.0,0.0,0.0,0.0,0.0,0.0001,0.0,0.0,0.0,0.0,0.0,0.0,0.0001,0.0,0.0,0.0,0.0,0.0,0.0,0.0001,0.0,0.0,0.0,0.0,0.0,0.0,0.0001
611465083000,65,611465083000,map,base_link,0.0808788761497,0.0564785674214,0.0233971402049,0.0143478537741,-0.0234294910775,0.0399011987055,-0.998825856885,1e-06,0.0,0.0,0.0,0.0,0.0,0.0,1e-06,0.0,0.0,0.0,0.0,0.0,0.0,1e-06,0.0,0.0,0.0,0.0,0.0,0.0,1e-06,0.0,0.0,0.0,0.0,0.0,0.0,1e-06,0.0,0.0,0.0,0.0,0.0,0.0,1e-06,0.188460689462,0.132471297805,0.00510823591538,0.00191515858751,0.00365143688396,-0.00149750499986,0.0001,0.0,0.0,0.0,0.0,0.0,0.0,0.0001,0.0,0.0,0.0,0.0,0.0,0.0,0.0001,0.0,0.0,0.0,0.0,0.0,0.0,0.0001,0.0,0.0,0.0,0.0,0.0,0.0,0.0001,0.0,0.0,0.0,0.0,0.0,0.0,0.0001
611508083000,66,611508083000,map,base_link,0.0778794884682,0.0530660711229,0.0285238996148,0.0141993492379,-0.023328843957,0.0398075495902,-0.998834071564,1e-06,0.0,0.0,0.0,0.0,0.0,0.0,1e-06,0.0,0.0,0.0,0.0,0.0,0.0,1e-06,0.0,0.0,0.0,0.0,0.0,0.0,1e-06,0.0,0.0,0.0,0.0,0.0,0.0,1e-06,0.0,0.0,0.0,0.0,0.0,0.0,1e-06,0.181210490585,0.123467869491,0.006586929295,-0.0141539648175,0.00801585428417,0.00444079143927,0.0001,0.0,0.0,0.0,0.0,0.0,0.0,0.0001,0.0,0.0,0.0,0.0,0.0,0.0,0.0001,0.0,0.0,0.0,0.0,0.0,0.0,0.0001,0.0,0.0,0.0,0.0,0.0,0.0,0.0001,0.0,0.0,0.0,0.0,0.0,0.0,0.0001
611544083000,67,611544083000,map,base_link,0.0779023170471,0.0519141815603,0.0310593359172,0.014116042436,-0.0233622185924,0.0396847213189,-0.998839359948,1e-06,0.0,0.0,0.0,0.0,0.0,0.0,1e-06,0.0,0.0,0.0,0.0,0.0,0.0,1e-06,0.0,0.0,0.0,0.0,0.0,0.0,1e-06,0.0,0.0,0.0,0.0,0.0,0.0,1e-06,0.0,0.0,0.0,0.0,0.0,0.0,1e-06,0.190516996117,0.124898742757,-0.0186015483289,0.011541036889,0.0277382303029,0.0137846050784,0.0001,0.0,0.0,0.0,0.0,0.0,0.0,0.0001,0.0,0.0,0.0,0.0,0.0,0.0,0.0001,0.0,0.0,0.0,0.0,0.0,0.0,0.0001,0.0,0.0,0.0,0.0,0.0,0.0,0.0001,0.0,0.0,0.0,0.0,0.0,0.0,0.0001
611505172000,68,611505172000,map,base_link,0.0820132791996,0.0536954849958,0.0311823543161,0.014262194712,-0.0236181005214,0.039508845393,-0.998838238288,1e-06,0.0,0.0,0.0,0.0,0.0,0.0,1e-06,0.0,0.0,0.0,0.0,0.0,0.0,1e-06,0.0,0.0,0.0,0.0,0.0,0.0,1e-06,0.0,0.0,0.0,0.0,0.0,0.0,1e-06,0.0,0.0,0.0,0.0,0.0,0.0,1e-06,0.203456732955,0.133625898072,0.00393184644419,0.00968962628394,0.0136488992721,0.0130741372705,0.0001,0.0,0.0,0.0,0.0,0.0,0.0,0.0001,0.0,0.0,0.0,0.0,0.0,0.0,0.0001,0.0,0.0,0.0,0.0,0.0,0.0,0.0001,0.0,0.0,0.0,0.0,0.0,0.0,0.0001,0.0,0.0,0.0,0.0,0.0,0.0,0.0001
611540172000,69,611540172000,map,base_link,0.0884065181017,0.0571316108108,0.0315758138895,0.0145106474368,-0.0234487458139,0.0392309697749,-0.998849602513,1e-06,0.0,0.0,0.0,0.0,0.0,0.0,1e-06,0.0,0.0,0.0,0.0,0.0,0.0,1e-06,0.0,0.0,0.0,0.0,0.0,0.0,1e-06,0.0,0.0,0.0,0.0,0.0,0.0,1e-06,0.0,0.0,0.0,0.0,0.0,0.0,1e-06,0.203611415321,0.1394333082,0.0359112280943,0.00314731895924,-0.0174704920501,0.0125213265419,0.0001,0.0,0.0,0.0,0.0,0.0,0.0,0.0001,0.0,0.0,0.0,0.0,0.0,0.0,0.0001,0.0,0.0,0.0,0.0,0.0,0.0,0.0001,0.0,0.0,0.0,0.0,0.0,0.0,0.0001,0.0,0.0,0.0,0.0,0.0,0.0,0.0001
611575172000,70,611575172000,map,base_link,0.0957840979099,0.0614250674844,0.0325057134032,0.0145709984949,-0.0235950413222,0.0391464121953,-0.998848596355,1e-06,0.0,0.0,0.0,0.0,0.0,0.0,1e-06,0.0,0.0,0.0,0.0,0.0,0.0,1e-06,0.0,0.0,0.0,0.0,0.0,0.0,1e-06,0.0,0.0,0.0,0.0,0.0,0.0,1e-06,0.0,0.0,0.0,0.0,0.0,0.0,1e-06,0.213991000245,0.151086703177,0.0532654629979,0.00449509266764,-0.000488763616886,0.00713702570647,0.0001,0.0,0.0,0.0,0.0,0.0,0.0,0.0001,0.0,0.0,0.0,0.0,0.0,0.0,0.0001,0.0,0.0,0.0,0.0,0.0,0.0,0.0001,0.0,0.0,0.0,0.0,0.0,0.0,0.0001,0.0,0.0,0.0,0.0,0.0,0.0,0.0001
611612172000,71,611612172000,map,base_link,0.104126110673,0.0663391053677,0.0337410755455,0.0145443861373,-0.0236012573135,0.038824559811,-0.998861399315,1e-06,0.0,0.0,0.0,0.0,0.0,0.0,1e-06,0.0,0.0,0.0,0.0,0.0,0.0,1e-06,0.0,0.0,0.0,0.0,0.0,0.0,1e-06,0.0,0.0,0.0,0.0,0.0,0.0,1e-06,0.0,0.0,0.0,0.0,0.0,0.0,1e-06,0.224503909019,0.155256525503,0.0899904260974,0.00195852597244,-0.0243371408433,0.00992470793426,0.0001,0.0,0.0,0.0,0.0,0.0,0.0,0.0001,0.0,0.0,0.0,0.0,0.0,0.0,0.0001,0.0,0.0,0.0,0.0,0.0,0.0,0.0001,0.0,0.0,0.0,0.0,0.0,0.0,0.0001,0.0,0.0,0.0,0.0,0.0,0.0,0.0001
611645172000,72,611645172000,map,base_link,0.0973316580057,0.0611407607794,0.0389624834061,0.0144080925592,-0.0235975381778,0.0387384141023,-0.998866807104,1e-06,0.0,0.0,0.0,0.0,0.0,0.0,1e-06,0.0,0.0,0.0,0.0,0.0,0.0,1e-06,0.0,0.0,0.0,0.0,0.0,0.0,1e-06,0.0,0.0,0.0,0.0,0.0,0.0,1e-06,0.0,0.0,0.0,0.0,0.0,0.0,1e-06,0.224476995335,0.141207428682,0.123893941101,0.00538923963904,0.00194297160488,0.00160151906312,0.0001,0.0,0.0,0.0,0.0,0.0,0.0,0.0001,0.0,0.0,0.0,0.0,0.0,0.0,0.0001,0.0,0.0,0.0,0.0,0.0,0.0,0.0001,0.0,0.0,0.0,0.0,0.0,0.0,0.0001,0.0,0.0,0.0,0.0,0.0,0.0,0.0001
611610887000,73,611610887000,map,base_link,0.0987034440041,0.0611023679376,0.0424419231713,0.0142769710067,-0.0235828882693,0.0384703235603,-0.998879396967,1e-06,0.0,0.0,0.0,0.0,0.0,0.0,1e-06,0.0,0.0,0.0,0.0,0.0,0.0,1e-06,0.0,0.0,0.0,0.0,0.0,0.0,1e-06,0.0,0.0,0.0,0.0,0.0,0.0,1e-06,0.0,0.0,0.0,0.0,0.0,0.0,1e-06,0.229867799983,0.13846401439,0.133268152174,-0.0112817911431,-0.000738861330319,0.00778885185719,0.0001,0.0,0.0,0.0,0.0,0.0,0.0,0.0001,0.0,0.0,0.0,0.0,0.0,0.0,0.0001,0.0,0.0,0.0,0.0,0.0,0.0,0.0001,0.0,0.0,0.0,0.0,0.0,0.0,0.0001,0.0,0.0,0.0,0.0,0.0,0.0,0.0001
611644887000,74,611644887000,map,base_link,0.104223698378,0.0633864402771,0.0462374053895,0.0142439848539,-0.0237512413816,0.0383748395822,-0.998879551856,1e-06,0.0,0.0,0.0,0.0,0.0,0.0,1e-06,0.0,0.0,0.0,0.0,0.0,0.0,1e-06,0.0,0.0,0.0,0.0,0.0,0.0,1e-06,0.0,0.0,0.0,0.0,0.0,0.0,1e-06,0.0,0.0,0.0,0.0,0.0,0.0,1e-06,0.238516598662,0.142626980553,0.122719259458,0.00322044454515,0.000187119178008,-0.00115907355212,0.0001,0.0,0.0,0.0,0.0,0.0,0.0,0.0001,0.0,0.0,0.0,0.0,0.0,0.0,0.0001,0.0,0.0,0.0,0.0,0.0,0.0,0.0001,0.0,0.0,0.0,0.0,0.0,0.0,0.0001,0.0,0.0,0.0,0.0,0.0,0.0,0.0001
611680887000,75,611680887000,map,base_link,0.112249687314,0.0671311840415,0.0491738803685,0.0141897455522,-0.0237886952736,0.0382166626009,-0.99888549684,1e-06,0.0,0.0,0.0,0.0,0.0,0.0,1e-06,0.0,0.0,0.0,0.0,0.0,0.0,1e-06,0.0,0.0,0.0,0.0,0.0,0.0,1e-06,0.0,0.0,0.0,0.0,0.0,0.0,1e-06,0.0,0.0,0.0,0.0,0.0,0.0,1e-06,0.247404632865,0.140367645328,0.113334106121,-0.00516713224351,0.00305602024309,0.00601570820436,0.0001,0.0,0.0,0.0,0.0,0.0,0.0,0.0001,0.0,0.0,0.0,0.0,0.0,0.0,0.0001,0.0,0.0,0.0,0.0,0.0,0.0,0.0001,0.0,0.0,0.0,0.0,0.0,0.0,0.0001,0.0,0.0,0.0,0.0,0.0,0.0,0.0001
611713887000,76,611713887000,map,base_link,0.120669022202,0.0709690600634,0.0517125464976,0.0141527042804,-0.0238732269274,0.0380438453857,-0.998890602532,1e-06,0.0,0.0,0.0,0.0,0.0,0.0,1e-06,0.0,0.0,0.0,0.0,0.0,0.0,1e-06,0.0,0.0,0.0,0.0,0.0,0.0,1e-06,0.0,0.0,0.0,0.0,0.0,0.0,1e-06,0.0,0.0,0.0,0.0,0.0,0.0,1e-06,0.255169642742,0.144199726409,0.128068587612,-0.00126344361342,0.00260616699234,0.00867630634457,0.0001,0.0,0.0,0.0,0.0,0.0,0.0,0.0001,0.0,0.0,0.0,0.0,0.0,0.0,0.0001,0.0,0.0,0.0,0.0,0.0,0.0,0.0001,0.0,0.0,0.0,0.0,0.0,0.0,0.0001,0.0,0.0,0.0,0.0,0.0,0.0,0.0001
611746887000,77,611746887000,map,base_link,0.129516363144,0.0751784369349,0.0552888587117,0.014154640027,-0.0238616784223,0.0378886482711,-0.99889674982,1e-06,0.0,0.0,0.0,0.0,0.0,0.0,1e-06,0.0,0.0,0.0,0.0,0.0,0.0,1e-06,0.0,0.0,0.0,0.0,0.0,0.0,1e-06,0.0,0.0,0.0,0.0,0.0,0.0,1e-06,0.0,0.0,0.0,0.0,0.0,0.0,1e-06,0.250606572907,0.142084220343,0.16837364097,-0.0224103983492,0.00480444030836,0.00252227368765,0.0001,0.0,0.0,0.0,0.0,0.0,0.0,0.0001,0.0,0.0,0.0,0.0,0.0,0.0,0.0001,0.0,0.0,0.0,0.0,0.0,0.0,0.0001,0.0,0.0,0.0,0.0,0.0,0.0,0.0001,0.0,0.0,0.0,0.0,0.0,0.0,0.0001
611714363000,78,611714363000,map,base_link,0.124363586307,0.0705998241901,0.0549138374627,0.0141261551958,-0.0238884855941,0.0377227389043,-0.998902791549,1e-06,0.0,0.0,0.0,0.0,0.0,0.0,1e-06,0.0,0.0,0.0,0.0,0.0,0.0,1e-06,0.0,0.0,0.0,0.0,0.0,0.0,1e-06,0.0,0.0,0.0,0.0,0.0,0.0,1e-06,0.0,0.0,0.0,0.0,0.0,0.0,1e-06,0.245892203859,0.134693056362,0.151477299682,-0.00102321431041,-0.00184093858115,0.00328992120922,0.0001,0.0,0.0,0.0,0.0,0.0,0.0,0.0001,0.0,0.0,0.0,0.0,0.0,0.0,0.0001,0.0,0.0,0.0,0.0,0.0,0.0,0.0001,0.0,0.0,0.0,0.0,0.0,0.0,0.0001,0.0,0.0,0.0,0.0,0.0,0.0,0.0001
611750363000,79,611750363000,map,base_link,0.12383249402,0.0689359456301,0.0569822192192,0.0141038402162,-0.0238079193886,0.0376525316125,-0.998907679182,1e-06,0.0,0.0,0.0,0.0,0.0,0.0,1e-06,0.0,0.0,0.0,0.0,0.0,0.0,1e-06,0.0,0.0,0.0,0.0,0.0,0.0,1e-06,0.0,0.0,0.0,0.0,0.0,0.0,1e-06,0.0,0.0,0.0,0.0,0.0,0.0,1e-06,0.248357208231,0.14141680718,0.213742476887,-0.00349059724249,-0.00848076771945,-0.000322130974382,0.0001,0.0,0.0,0.0,0.0,0.0,0.0,0.0001,0.0,0.0,0.0,0.0,0.0,0.0,0.0001,0.0,0.0,0.0,0.0,0.0,0.0,0.0001,0.0,0.0,0.0,0.0,0.0,0.0,0.0001,0.0,0.0,0.0,0.0,0.0,0.0,0.0001
611775363000,80,611775363000,map,base_link,0.127681151032,0.0702476724982,0.0600995570421,0.0139025468931,-0.0239216599478,0.0375622266408,-0.998911183492,1e-06,0.0,0.0,0.0,0.0,0.0,0.0,1e-06,0.0,0.0,0.0,0.0,0.0,0.0,1e-06,0.0,0.0,0.0,0.0,0.0,0.0,1e-06,0.0,0.0,0.0,0.0,0.0,0.0,1e-06,0.0,0.0,0.0,0.0,0.0,0.0,1e-06,0.261003139643,0.141158662651,0.19228379203,-0.00416320096701,-0.00531159900129,0.0106205251068,0.0001,0.0,0.0,0.0,0.0,0.0,0.0,0.0001,0.0,0.0,0.0,0.0,0.0,0.0,0.0001,0.0,0.0,0.0,0.0,0.0,0.0,0.0001,0.0,0.0,0.0,0.0,0.0,0.0,0.0001,0.0,0.0,0.0,0.0,0.0,0.0,0.0001
611810363000,81,611810363000,map,base_link,0.135725781322,0.0735257267952,0.0638574659824,0.0138387210991,-0.0239968871646,0.0373654606894,-0.99891764503,1e-06,0.0,0.0,0.0,0.0,0.0,0.0,1e-06,0.0,0.0,0.0,0.0,0.0,0.0,1e-06,0.0,0.0,0.0,0.0,0.0,0.0,1e-06,0.0,0.0,0.0,0.0,0.0,0.0,1e-06,0.0,0.0,0.0,0.0,0.0,0.0,1e-06,0.272248549678,0.14275103211,0.170584427164,0.00130765896756,0.000106191728264,0.00175159657374,0.0001,0.0,0.0,0.0,0.0,0.0,0.0,0.0001,0.0,0.0,0.0,0.0,0.0,0.0,0.0001,0.0,0.0,0.0,0.0,0.0,0.0,0.0001,0.0,0.0,0.0,0.0,0.0,0.0,0.0001,0.0,0.0,0.0,0.0,0.0,0.0,0.0001
611850363000,82,611850363000,map,base_link,0.14677169919,0.0779774263501,0.0682368502021,0.0138770981528,-0.0241578237085,0.0372345837314,-0.998918120506,1e-06,0.0,0.0,0.0,0.0,0.0,0.0,1e-06,0.0,0.0,0.0,0.0,0.0,0.0,1e-06,0.0,0.0,0.0,0.0,0.0,0.0,1e-06,0.0,0.0,0.0,0.0,0.0,0.0,1e-06,0.0,0.0,0.0,0.0,0.0,0.0,1e-06,0.291361034668,0.146366799055,0.165355025064,-0.00130411062855,0.00329177640378,-0.00168828084134,0.0001,0.0,0.0,0.0,0.0,0.0,0.0,0.0001,0.0,0.0,0.0,0.0,0.0,0.0,0.0001,0.0,0.0,0.0,0.0,0.0,0.0,0.0001,0.0,0.0,0.0,0.0,0.0,0.0,0.0001,0.0,0.0,0.0,0.0,0.0,0.0,0.0001
611822074000,83,611822074000,map,base_link,0.157941833138,0.0826029628515,0.0720576196909,0.0139945902963,-0.0241853112772,0.0371936803455,-0.998917340075,1e-06,0.0,0.0,0.0,0.0,0.0,0.0,1e-06,0.0,0.0,0.0,0.0,0.0,0.0,1e-06,0.0,0.0,0.0,0.0,0.0,0.0,1e-06,0.0,0.0,0.0,0.0,0.0,0.0,1e-06,0.0,0.0,0.0,0.0,0.0,0.0,1e-06,0.303423246161,0.155214986067,0.160504404215,0.000456886918982,0.000230552803259,0.00671907328069,0.0001,0.0,0.0,0.0,0.0,0.0,0.0,0.0001,0.0,0.0,0.0,0.0,0.0,0.0,0.0001,0.0,0.0,0.0,0.0,0.0,0.0,0.0001,0.0,0.0,0.0,0.0,0.0,0.0,0.0001,0.0,0.0,0.0,0.0,0.0,0.0,0.0001
611856074000,84,611856074000,map,base_link,0.145678162575,0.0750518664718,0.0698334127665,0.0139121300925,-0.023883527481,0.0370343872875,-0.998931671292,1e-06,0.0,0.0,0.0,0.0,0.0,0.0,1e-06,0.0,0.0,0.0,0.0,0.0,0.0,1e-06,0.0,0.0,0.0,0.0,0.0,0.0,1e-06,0.0,0.0,0.0,0.0,0.0,0.0,1e-06,0.0,0.0,0.0,0.0,0.0,0.0,1e-06,0.279787840958,0.149335318065,0.108328622601,-0.00790515635163,0.00289942696691,0.00300328386948,0.0001,0.0,0.0,0.0,0.0,0.0,0.0,0.0001,0.0,0.0,0.0,0.0,0.0,0.0,0.0001,0.0,0.0,0.0,0.0,0.0,0.0,0.0001,0.0,0.0,0.0,0.0,0.0,0.0,0.0001,0.0,0.0,0.0,0.0,0.0,0.0,0.0001
611892074000,85,611892074000,map,base_link,0.146750092506,0.0747838914394,0.0688282325864,0.0139319357753,-0.0237180051916,0.037082142821,-0.9989335674,1e-06,0.0,0.0,0.0,0.0,0.0,0.0,1e-06,0.0,0.0,0.0,0.0,0.0,0.0,1e-06,0.0,0.0,0.0,0.0,0.0,0.0,1e-06,0.0,0.0,0.0,0.0,0.0,0.0,1e-06,0.0,0.0,0.0,0.0,0.0,0.0,1e-06,0.273860722173,0.149752671388,0.059779450376,0.00288477027789,-0.0167328342795,-0.0228904616088,0.0001,0.0,0.0,0.0,0.0,0.0,0.0,0.0001,0.0,0.0,0.0,0.0,0.0,0.0,0.0001,0.0,0.0,0.0,0.0,0.0,0.0,0.0001,0.0,0.0,0.0,0.0,0.0,0.0,0.0001,0.0,0.0,0.0,0.0,0.0,0.0,0.0001
611901045000,86,611901045000,map,base_link,0.153058961034,0.0773005411029,0.0677595585585,0.0135771911034,-0.0216594314368,0.0403479449442,-0.998858634768,1e-06,0.0,0.0,0.0,0.0,0.0,0.0,1e-06,0.0,0.0,0.0,0.0,0.0,0.0,1e-06,0.0,0.0,0.0,0.0,0.0,0.0,1e-06,0.0,0.0,0.0,0.0,0.0,0.0,1e-06,0.0,0.0,0.0,0.0,0.0,0.0,1e-06,0.279804849223,0.149435698849,0.0384781255624,0.110121682286,-0.21488724649,-0.394789934158,0.0001,0.0,0.0,0.0,0.0,0.0,0.0,0.0001,0.0,0.0,0.0,0.0,0.0,0.0,0.0001,0.0,0.0,0.0,0.0,0.0,0.0,0.0001,0.0,0.0,0.0,0.0,0.0,0.0,0.0001,0.0,0.0,0.0,0.0,0.0,0.0,0.0001
611931045000,87,611931045000,map,base_link,0.16071946919,0.0804676637053,0.0676442012191,0.00985305300894,-0.0148900452463,0.052744468528,-0.998448408752,1e-06,0.0,0.0,0.0,0.0,0.0,0.0,1e-06,0.0,0.0,0.0,0.0,0.0,0.0,1e-06,0.0,0.0,0.0,0.0,0.0,0.0,1e-06,0.0,0.0,0.0,0.0,0.0,0.0,1e-06,0.0,0.0,0.0,0.0,0.0,0.0,1e-06,0.283321320573,0.157938082434,0.0686462669638,0.285505324602,-0.428453683853,-0.858168780804,0.0001,0.0,0.0,0.0,0.0,0.0,0.0,0.0001,0.0,0.0,0.0,0.0,0.0,0.0,0.0001,0.0,0.0,0.0,0.0,0.0,0.0,0.0001,0.0,0.0,0.0,0.0,0.0,0.0,0.0001,0.0,0.0,0.0,0.0,0.0,0.0,0.0001
611971045000,88,611971045000,map,base_link,0.172371864319,0.0853557884693,0.0702309310436,0.00614793201033,-0.00766829171509,0.0664285250767,-0.99774277812,1e-06,0.0,0.0,0.0,0.0,0.0,0.0,1e-06,0.0,0.0,0.0,0.0,0.0,0.0,1e-06,0.0,0.0,0.0,0.0,0.0,0.0,1e-06,0.0,0.0,0.0,0.0,0.0,0.0,1e-06,0.0,0.0,0.0,0.0,0.0,0.0,1e-06,0.286766578068,0.169607646173,0.149636132673,0.273832857609,-0.463170260191,-0.893176138401,0.0001,0.0,0.0,0.0,0.0,0.0,0.0,0.0001,0.0,0.0,0.0,0.0,0.0,0.0,0.0001,0.0,0.0,0.0,0.0,0.0,0.0,0.0001,0.0,0.0,0.0,0.0,0.0,0.0,0.0001,0.0,0.0,0.0,0.0,0.0,0.0,0.0001
612007045000,89,612007045000,map,base_link,0.171818956733,0.0840629786253,0.0682841613889,0.00237908334343,0.000691501340895,0.0808905399788,-0.996719911675,1e-06,0.0,0.0,0.0,0.0,0.0,0.0,1e-06,0.0,0.0,0.0,0.0,0.0,0.0,1e-06,0.0,0.0,0.0,0.0,0.0,0.0,1e-06,0.0,0.0,0.0,0.0,0.0,0.0,1e-06,0.0,0.0,0.0,0.0,0.0,0.0,1e-06,0.275800900094,0.172281009396,0.211083480153,0.238404855132,-0.438760250807,-0.764312744141,0.0001,0.0,0.0,0.0,0.0,0.0,0.0,0.0001,0.0,0.0,0.0,0.0,0.0,0.0,0.0001,0.0,0.0,0.0,0.0,0.0,0.0,0.0001,0.0,0.0,0.0,0.0,0.0,0.0,0.0001,0.0,0.0,0.0,0.0,0.0,0.0,0.0001
612013321000,90,612013321000,map,base_link,0.164707109332,0.0793711543083,0.064760401845,-0.0011710249675,0.00904463193641,0.0936364271323,-0.995564685416,1e-06,0.0,0.0,0.0,0.0,0.0,0.0,1e-06,0.0,0.0,0.0,0.0,0.0,0.0,1e-06,0.0,0.0,0.0,0.0,0.0,0.0,1e-06,0.0,0.0,0.0,0.0,0.0,0.0,1e-06,0.0,0.0,0.0,0.0,0.0,0.0,1e-06,0.253838628196,0.166891714249,0.251911854769,0.196239829063,-0.401013880968,-0.654397666454,0.0001,0.0,0.0,0.0,0.0,0.0,0.0,0.0001,0.0,0.0,0.0,0.0,0.0,0.0,0.0001,0.0,0.0,0.0,0.0,0.0,0.0,0.0001,0.0,0.0,0.0,0.0,0.0,0.0,0.0001,0.0,0.0,0.0,0.0,0.0,0.0,0.0001
612038321000,91,612038321000,map,base_link,0.166346043348,0.0795826464891,0.0677125006914,-0.00354047307324,0.014817809,0.103835160671,-0.994477831324,1e-06,0.0,0.0,0.0,0.0,0.0,0.0,1e-06,0.0,0.0,0.0,0.0,0.0,0.0,1e-06,0.0,0.0,0.0,0.0,0.0,0.0,1e-06,0.0,0.0,0.0,0.0,0.0,0.0,1e-06,0.0,0.0,0.0,0.0,0.0,0.0,1e-06,0.242220659768,0.166544464138,0.274758947655,0.150233313441,-0.299388378859,-0.648797035217,0.0001,0.0,0.0,0.0,0.0,0.0,0.0,0.0001,0.0,0.0,0.0,0.0,0.0,0.0,0.0001,0.0,0.0,0.0,0.0,0.0,0.0,0.0001,0.0,0.0,0.0,0.0,0.0,0.0,0.0001,0.0,0.0,0.0,0.0,0.0,0.0,0.0001
612075321000,92,612075321000,map,base_link,0.172236487269,0.0818374603987,0.0755051076412,-0.00516390027966,0.0189425331292,0.115237135061,-0.993143955968,1e-06,0.0,0.0,0.0,0.0,0.0,0.0,1e-06,0.0,0.0,0.0,0.0,0.0,0.0,1e-06,0.0,0.0,0.0,0.0,0.0,0.0,1e-06,0.0,0.0,0.0,0.0,0.0,0.0,1e-06,0.0,0.0,0.0,0.0,0.0,0.0,1e-06,0.224453204886,0.165049135984,0.297350515986,0.0750789791346,-0.192201450467,-0.670828163624,0.0001,0.0,0.0,0.0,0.0,0.0,0.0,0.0001,0.0,0.0,0.0,0.0,0.0,0.0,0.0001,0.0,0.0,0.0,0.0,0.0,0.0,0.0001,0.0,0.0,0.0,0.0,0.0,0.0,0.0001,0.0,0.0,0.0,0.0,0.0,0.0,0.0001
612112321000,93,612112321000,map,base_link,0.179797202349,0.0851371586323,0.0856087505817,-0.00619485085902,0.0213586251714,0.125915964215,-0.991791612643,1e-06,0.0,0.0,0.0,0.0,0.0,0.0,1e-06,0.0,0.0,0.0,0.0,0.0,0.0,1e-06,0.0,0.0,0.0,0.0,0.0,0.0,1e-06,0.0,0.0,0.0,0.0,0.0,0.0,1e-06,0.0,0.0,0.0,0.0,0.0,0.0,1e-06,0.204086290743,0.160423862939,0.307280727115,0.0590588189662,-0.0942156016827,-0.700995743275,0.0001,0.0,0.0,0.0,0.0,0.0,0.0,0.0001,0.0,0.0,0.0,0.0,0.0,0.0,0.0001,0.0,0.0,0.0,0.0,0.0,0.0,0.0001,0.0,0.0,0.0,0.0,0.0,0.0,0.0001,0.0,0.0,0.0,0.0,0.0,0.0,0.0001
612110853000,94,612110853000,map,base_link,0.187275499105,0.0885775908828,0.0961347520351,-0.00714201204179,0.0222394943897,0.137648622338,-0.990205662134,1e-06,0.0,0.0,0.0,0.0,0.0,0.0,1e-06,0.0,0.0,0.0,0.0,0.0,0.0,1e-06,0.0,0.0,0.0,0.0,0.0,0.0,1e-06,0.0,0.0,0.0,0.0,0.0,0.0,1e-06,0.0,0.0,0.0,0.0,0.0,0.0,1e-06,0.182823612262,0.153940535887,0.305298133171,0.0422811098397,-0.0293251592666,-0.717398881912,0.0001,0.0,0.0,0.0,0.0,0.0,0.0,0.0001,0.0,0.0,0.0,0.0,0.0,0.0,0.0001,0.0,0.0,0.0,0.0,0.0,0.0,0.0001,0.0,0.0,0.0,0.0,0.0,0.0,0.0001,0.0,0.0,0.0,0.0,0.0,0.0,0.0001
612136853000,95,612136853000,map,base_link,0.169201746583,0.0808127298951,0.103379741311,-0.00822796910034,0.0225128128394,0.150118031561,-0.988377483749,1e-06,0.0,0.0,0.0,0.0,0.0,0.0,1e-06,0.0,0.0,0.0,0.0,0.0,0.0,1e-06,0.0,0.0,0.0,0.0,0.0,0.0,1e-06,0.0,0.0,0.0,0.0,0.0,0.0,1e-06,0.0,0.0,0.0,0.0,0.0,0.0,1e-06,0.144468743612,0.134498758555,0.300708591184,0.0359281115234,0.0146969892085,-0.714547157288,0.0001,0.0,0.0,0.0,0.0,0.0,0.0,0.0001,0.0,0.0,0.0,0.0,0.0,0.0,0.0001,0.0,0.0,0.0,0.0,0.0,0.0,0.0001,0.0,0.0,0.0,0.0,0.0,0.0,0.0001,0.0,0.0,0.0,0.0,0.0,0.0,0.0001
612170853000,96,612170853000,map,base_link,0.160727217793,0.0774708390236,0.11229391396,-0.00885422637498,0.0216298201374,0.16179686938,-0.986547275408,1e-06,0.0,0.0,0.0,0.0,0.0,0.0,1e-06,0.0,0.0,0.0,0.0,0.0,0.0,1e-06,0.0,0.0,0.0,0.0,0.0,0.0,1e-06,0.0,0.0,0.0,0.0,0.0,0.0,1e-06,0.0,0.0,0.0,0.0,0.0,0.0,1e-06,0.112459866082,0.116366283853,0.295147843066,-0.0179351903498,0.0888599455357,-0.704923331738,0.0001,0.0,0.0,0.0,0.0,0.0,0.0,0.0001,0.0,0.0,0.0,0.0,0.0,0.0,0.0001,0.0,0.0,0.0,0.0,0.0,0.0,0.0001,0.0,0.0,0.0,0.0,0.0,0.0,0.0001,0.0,0.0,0.0,0.0,0.0,0.0,0.0001
612203853000,97,612203853000,map,base_link,0.159184932709,0.0772849470377,0.121036663651,-0.00855866395382,0.0194060012421,0.173181225459,-0.984661576145,1e-06,0.0,0.0,0.0,0.0,0.0,0.0,1e-06,0.0,0.0,0.0,0.0,0.0,0.0,1e-06,0.0,0.0,0.0,0.0,0.0,0.0,1e-06,0.0,0.0,0.0,0.0,0.0,0.0,1e-06,0.0,0.0,0.0,0.0,0.0,0.0,1e-06,0.0882501167443,0.102043981172,0.291145232929,-0.078484095633,0.151430904865,-0.708122253418,0.0001,0.0,0.0,0.0,0.0,0.0,0.0,0.0001,0.0,0.0,0.0,0.0,0.0,0.0,0.0001,0.0,0.0,0.0,0.0,0.0,0.0,0.0001,0.0,0.0,0.0,0.0,0.0,0.0,0.0001,0.0,0.0,0.0,0.0,0.0,0.0,0.0001
612202275000,98,612202275000,map,base_link,0.160295039415,0.0784025490284,0.130523964763,-0.00800823113674,0.0164160123957,0.184292159435,-0.982701777113,1e-06,0.0,0.0,0.0,0.0,0.0,0.0,1e-06,0.0,0.0,0.0,0.0,0.0,0.0,1e-06,0.0,0.0,0.0,0.0,0.0,0.0,1e-06,0.0,0.0,0.0,0.0,0.0,0.0,1e-06,0.0,0.0,0.0,0.0,0.0,0.0,1e-06,0.0661437445969,0.0875226816351,0.281051648984,-0.0813521370292,0.168051868677,-0.705472528934,0.0001,0.0,0.0,0.0,0.0,0.0,0.0,0.0001,0.0,0.0,0.0,0.0,0.0,0.0,0.0001,0.0,0.0,0.0,0.0,0.0,0.0,0.0001,0.0,0.0,0.0,0.0,0.0,0.0,0.0001,0.0,0.0,0.0,0.0,0.0,0.0,0.0001
612242275000,99,612242275000,map,base_link,0.162313491106,0.0800428837538,0.140286058187,-0.0073128769099,0.0129619098027,0.196642508896,-0.980362297531,1e-06,0.0,0.0,0.0,0.0,0.0,0.0,1e-06,0.0,0.0,0.0,0.0,0.0,0.0,1e-06,0.0,0.0,0.0,0.0,0.0,0.0,1e-06,0.0,0.0,0.0,0.0,0.0,0.0,1e-06,0.0,0.0,0.0,0.0,0.0,0.0,1e-06,0.0463898797258,0.0733000671279,0.264206511369,-0.0813910886645,0.178643807769,-0.71116656065,0.0001,0.0,0.0,0.0,0.0,0.0,0.0,0.0001,0.0,0.0,0.0,0.0,0.0,0.0,0.0001,0.0,0.0,0.0,0.0,0.0,0.0,0.0001,0.0,0.0,0.0,0.0,0.0,0.0,0.0001,0.0,0.0,0.0,0.0,0.0,0.0,0.0001
612267275000,100,612267275000,map,base_link,0.163554817438,0.0810833647847,0.146004498005,-0.00678628953628,0.00966297727314,0.208677562412,-0.977913210919,1e-06,0.0,0.0,0.0,0.0,0.0,0.0,1e-06,0.0,0.0,0.0,0.0,0.0,0.0,1e-06,0.0,0.0,0.0,0.0,0.0,0.0,1e-06,0.0,0.0,0.0,0.0,0.0,0.0,1e-06,0.0,0.0,0.0,0.0,0.0,0.0,1e-06,0.035833085158,0.0666656738089,0.253503360936,-0.0749448761344,0.167637184262,-0.70554292202,0.0001,0.0,0.0,0.0,0.0,0.0,0.0,0.0001,0.0,0.0,0.0,0.0,0.0,0.0,0.0001,0.0,0.0,0.0,0.0,0.0,0.0,0.0001,0.0,0.0,0.0,0.0,0.0,0.0,0.0001,0.0,0.0,0.0,0.0,0.0,0.0,0.0001
